DatTime,SimTime,MediaTime,LonAccel,LatAccel,Throttle,Brake,Gear,Heading,HeadingError,HeadwayDistance,HeadwayTime,Lane,LaneOffset,RoadOffset,Steer,TailwayDistance,TailwayTime,Velocity,LatVelocity,VertVelocity,XPos,YPos,ZPos,Roll,Pitch,Yaw,EngineRPM,SlipFR,SlipFL,SlipRR,SlipRL,User1,User2,User3,User4,User5,User6,User7,User8,User9,User10,User11,User12,User13,User14,User15,User16,User17,User18,User19,User20,User21,GazeObject,FRAME_NUM,EXPERIMENT_TIME,GMT_S,GMT_MS,APPROX_DELAY,GAZE_DIR_QUAL_R,EYE_POS_R_X,EYE_POS_R_Y,EYE_POS_R_Z,GAZE_DIR_QUAL_L,EYE_POS_L_X,EYE_POS_L_Y,EYE_POS_L_Z,GAZE_DIR_QUAL,GAZE_HEADING,GAZE_PITCH,GAZE_ORIGIN_X,GAZE_ORIGIN_Y,GAZE_ORIGIN_Z,GAZE_DIRECTION_X,GAZE_DIRECTION_Y,GAZE_DIRECTION_Z,GAZE_DIRECTION_FILTERED_X,GAZE_DIRECTION_FILTERED_Y,GAZE_DIRECTION_FILTERED_Z,LEFT_GAZE_DIRECTION_X,LEFT_GAZE_DIRECTION_Y,LEFT_GAZE_DIRECTION_Z,LEFT_GAZE_DIRECTION_FILTERED_X,LEFT_GAZE_DIRECTION_FILTERED_Y,LEFT_GAZE_DIRECTION_FILTERED_Z,RIGHT_GAZE_DIRECTION_X,RIGHT_GAZE_DIRECTION_Y,RIGHT_GAZE_DIRECTION_Z,RIGHT_GAZE_DIRECTION_FILTERED_X,RIGHT_GAZE_DIRECTION_FILTERED_Y,RIGHT_GAZE_DIRECTION_FILTERED_Z,GAZE_ORIGIN_R_X,GAZE_ORIGIN_R_Y,GAZE_ORIGIN_R_Z,GAZE_ORIGIN_L_X,GAZE_ORIGIN_L_Y,GAZE_ORIGIN_L_Z,GAZE_OBJ_NAME,FILTERED_GAZE_OBJ_NAME,WORLD_INTERSECTION_X,WORLD_INTERSECTION_Y,WORLD_INTERSECTION_Z,INTERSECTION_SCREEN_X,INTERSECTION_SCREEN_Y,FILTERED_WORLD_INTERSECTION_X,FILTERED_WORLD_INTERSECTION_Y,FILTERED_WORLD_INTERSECTION_Z,FILTERED_INTERSECTION_SCREEN_X,FILTERED_INTERSECTION_SCREEN_Y,Unnamed: 109,time_stamp
5.934,9.16667,6.56666,0.290319,-0.002433,0.435549,0.0,6.0,359.817104,-0.003192,10000.0,6918.46127,2.0,-0.198583,5.201417,-0.002582,10000.0,6918.46127,1.445423,-0.002361,-0.001088,3909.169189,14.201417,-0.531953,0.001193,-0.033562,-0.182896,666.867615,0.005013,0.005011,0.000176,0.000173,0.0,0.0,0.0,0.0,0.0,0.0,0.0,-1.0,0.0,0.0,0.0,0.0,0.0,0.0,0.0,0.0,0.0,0.0,0.0,0.0,0.0,.,.,.,.,.,.,.,.,.,.,.,.,.,.,.,.,.,.,.,.,.,.,.,.,.,.,.,.,.,.,.,.,.,.,.,.,.,.,.,.,.,.,.,.,.,.,.,.,.,.,.,.,.,.,.,.,,0.5666700000000002
5.949,9.18333,6.56666,0.289694,-0.002441,0.435549,0.0,6.0,359.815763,-0.003216,10000.0,6895.469853,2.0,-0.1987,5.2013,-0.002581,10000.0,6895.469853,1.450242,-0.002368,-0.001073,3909.193359,14.2013,-0.531957,0.001198,-0.033575,-0.184237,667.425171,0.005007,0.005005,0.000176,0.000172,0.0,0.0,0.0,0.0,0.0,0.0,0.0,-1.0,0.0,0.0,0.0,0.0,0.0,0.0,0.0,0.0,0.0,0.0,0.0,0.0,0.0,.,.,.,.,.,.,.,.,.,.,.,.,.,.,.,.,.,.,.,.,.,.,.,.,.,.,.,.,.,.,.,.,.,.,.,.,.,.,.,.,.,.,.,.,.,.,.,.,.,.,.,.,.,.,.,.,,0.5833300000000001
5.967,9.2,6.599993,0.28907,-0.002449,0.435549,0.0,6.0,359.814418,-0.003239,10000.0,6872.679164,2.0,-0.198818,5.201182,-0.00258,10000.0,6872.679164,1.455052,-0.002375,-0.001057,3909.217529,14.201182,-0.53196,0.001204,-0.033611,-0.185582,667.980713,0.005,0.004998,0.000175,0.000172,0.0,0.0,0.0,0.0,0.0,0.0,0.0,-1.0,0.0,0.0,0.0,0.0,0.0,0.0,0.0,0.0,0.0,0.0,0.0,0.0,0.0,.,.,.,.,.,.,.,.,.,.,.,.,.,.,.,.,.,.,.,.,.,.,.,.,.,.,.,.,.,.,.,.,.,.,.,.,.,.,.,.,.,.,.,.,.,.,.,.,.,.,.,.,.,.,.,.,,0.5999999999999996
5.983,9.21667,6.599993,0.288486,-0.002456,0.435549,0.0,6.0,359.813153,-0.003261,10000.0,6851.494413,2.0,-0.198929,5.201071,-0.002579,10000.0,6851.494413,1.459551,-0.002381,-0.001041,3909.240234,14.201071,-0.531963,0.001208,-0.033664,-0.186847,668.499634,0.004994,0.004992,0.000175,0.000172,0.0,0.0,0.0,0.0,0.0,0.0,0.0,-1.0,0.0,0.0,0.0,0.0,0.0,0.0,0.0,0.0,0.0,0.0,0.0,0.0,0.0,.,.,.,.,.,.,.,.,.,.,.,.,.,.,.,.,.,.,.,.,.,.,.,.,.,.,.,.,.,.,.,.,.,.,.,.,.,.,.,.,.,.,.,.,.,.,.,.,.,.,.,.,.,.,.,.,,0.6166700000000009
6.0,9.23333,6.633327,0.287864,-0.002465,0.435549,0.0,6.0,359.8118,-0.003285,10000.0,6829.087525,2.0,-0.199048,5.200952,-0.002579,10000.0,6829.087525,1.46434,-0.002388,-0.001024,3909.264648,14.200952,-0.531966,0.001212,-0.033742,-0.1882,669.05127,0.004988,0.004985,0.000175,0.000171,0.0,0.0,0.0,0.0,0.0,0.0,0.0,-1.0,0.0,0.0,0.0,0.0,0.0,0.0,0.0,0.0,0.0,0.0,0.0,0.0,0.0,.,.,.,.,.,.,.,.,.,.,.,.,.,.,.,.,.,.,.,.,.,.,.,.,.,.,.,.,.,.,.,.,.,.,.,.,.,.,.,.,.,.,.,.,.,.,.,.,.,.,.,.,.,.,.,.,,0.6333300000000008
6.017,9.25,6.633327,0.287321,-0.002473,0.435549,0.0,6.0,359.810612,-0.003305,10000.0,6809.640349,2.0,-0.199153,5.200847,-0.002578,10000.0,6809.640349,1.468522,-0.002394,-0.00101,3909.286133,14.200847,-0.531969,0.001215,-0.033827,-0.189388,669.532349,0.004982,0.00498,0.000174,0.000171,0.0,0.0,0.0,0.0,0.0,0.0,0.0,-1.0,0.0,0.0,0.0,0.0,0.0,0.0,0.0,0.0,0.0,0.0,0.0,0.0,0.0,.,.,.,.,.,.,.,.,.,.,.,.,.,.,.,.,.,.,.,.,.,.,.,.,.,.,.,.,.,.,.,.,.,.,.,.,.,.,.,.,.,.,.,.,.,.,.,.,.,.,.,.,.,.,.,.,,0.6500000000000004
6.034,9.26667,6.66666,0.286581,-0.002484,0.435549,0.0,6.0,359.808996,-0.003334,10000.0,6783.483238,2.0,-0.199298,5.200702,-0.002577,10000.0,6783.483238,1.474185,-0.002402,-0.000991,3909.315186,14.200702,-0.531971,0.001219,-0.033966,-0.191004,670.184082,0.004974,0.004972,0.000174,0.00017,0.0,0.0,0.0,0.0,0.0,0.0,0.0,-1.0,0.0,0.0,0.0,0.0,0.0,0.0,0.0,0.0,0.0,0.0,0.0,0.0,0.0,.,.,.,.,.,.,.,.,.,.,.,.,.,.,.,.,.,.,.,.,.,.,.,.,.,.,.,.,.,.,.,.,.,.,.,.,.,.,.,.,.,.,.,.,.,.,.,.,.,.,.,.,.,.,.,.,,0.6666699999999999
6.05,9.28333,6.66666,0.285982,-0.002494,0.435549,0.0,6.0,359.807715,-0.003356,10000.0,6763.024449,2.0,-0.199413,5.200587,-0.002576,10000.0,6763.024449,1.478644,-0.002408,-0.000978,3909.338135,14.200587,-0.531973,0.001222,-0.034095,-0.192285,670.699646,0.004967,0.004965,0.000173,0.00017,0.0,0.0,0.0,0.0,0.0,0.0,0.0,-1.0,0.0,0.0,0.0,0.0,0.0,0.0,0.0,0.0,0.0,0.0,0.0,0.0,0.0,.,.,.,.,.,.,.,.,.,.,.,.,.,.,.,.,.,.,.,.,.,.,.,.,.,.,.,.,.,.,.,.,.,.,.,.,.,.,.,.,.,.,.,.,.,.,.,.,.,.,.,.,.,.,.,.,,0.6833299999999998
6.067,9.3,6.699993,0.285284,-0.002506,0.435549,0.0,6.0,359.80626,-0.003381,10000.0,6740.040039,2.0,-0.199543,5.200457,-0.002575,10000.0,6740.040039,1.483687,-0.002416,-0.000963,3909.364502,14.200457,-0.531974,0.001226,-0.03426,-0.19374,671.286438,0.004959,0.004957,0.000173,0.00017,0.0,0.0,0.0,0.0,0.0,0.0,0.0,-1.0,0.0,0.0,0.0,0.0,0.0,0.0,0.0,0.0,0.0,0.0,0.0,0.0,0.0,.,.,.,.,.,.,.,.,.,.,.,.,.,.,.,.,.,.,.,.,.,.,.,.,.,.,.,.,.,.,.,.,.,.,.,.,.,.,.,.,.,.,.,.,.,.,.,.,.,.,.,.,.,.,.,.,,0.7000000000000011
6.084,9.31667,6.699993,0.284869,-0.002513,0.435549,0.0,6.0,359.805401,-0.003396,10000.0,6726.619155,2.0,-0.199622,5.200378,-0.002575,10000.0,6726.619155,1.486647,-0.00242,-0.000954,3909.379883,14.200378,-0.531975,0.001228,-0.034367,-0.194599,671.632935,0.004955,0.004953,0.000173,0.000169,0.0,0.0,0.0,0.0,0.0,0.0,0.0,-1.0,0.0,0.0,0.0,0.0,0.0,0.0,0.0,0.0,0.0,0.0,0.0,0.0,0.0,.,.,.,.,.,.,.,.,.,.,.,.,.,.,.,.,.,.,.,.,.,.,.,.,.,.,.,.,.,.,.,.,.,.,.,.,.,.,.,.,.,.,.,.,.,.,.,.,.,.,.,.,.,.,.,.,,0.7166700000000006
6.099,9.33333,6.733327,0.284,-0.002528,0.435549,0.0,6.0,359.803593,-0.003428,10000.0,6698.671239,2.0,-0.199786,5.200214,-0.002574,10000.0,6698.671239,1.49285,-0.002428,-0.000936,3909.412598,14.200214,-0.531976,0.001233,-0.034613,-0.196407,672.364014,0.004946,0.004944,0.000172,0.000169,0.0,0.0,0.0,0.0,0.0,0.0,0.0,-1.0,0.0,0.0,0.0,0.0,0.0,0.0,0.0,0.0,0.0,0.0,0.0,0.0,0.0,.,.,.,.,.,.,.,.,.,.,.,.,.,.,.,.,.,.,.,.,.,.,.,.,.,.,.,.,.,.,.,.,.,.,.,.,.,.,.,.,.,.,.,.,.,.,.,.,.,.,.,.,.,.,.,.,,0.7333300000000005
6.117,9.35,6.733327,0.283303,-0.002541,0.435549,0.0,6.0,359.802124,-0.003454,10000.0,6676.277114,2.0,-0.19992,5.20008,-0.002573,10000.0,6676.277114,1.497858,-0.002435,-0.000923,3909.438965,14.20008,-0.531977,0.001238,-0.034834,-0.197876,672.958679,0.004938,0.004936,0.000172,0.000168,0.0,0.0,0.0,0.0,0.0,0.0,0.0,-1.0,0.0,0.0,0.0,0.0,0.0,0.0,0.0,0.0,0.0,0.0,0.0,0.0,0.0,.,.,.,.,.,.,.,.,.,.,.,.,.,.,.,.,.,.,.,.,.,.,.,.,.,.,.,.,.,.,.,.,.,.,.,.,.,.,.,.,.,.,.,.,.,.,.,.,.,.,.,.,.,.,.,.,,0.75
6.133,9.36667,6.76666,0.282896,-0.002549,0.435549,0.0,6.0,359.801258,-0.003469,10000.0,6663.199216,2.0,-0.199999,5.200001,-0.002572,10000.0,6663.199216,1.500798,-0.002439,-0.000915,3909.45459,14.200001,-0.531977,0.001241,-0.034972,-0.198742,673.309448,0.004934,0.004932,0.000172,0.000168,0.0,0.0,0.0,0.0,0.0,0.0,0.0,-1.0,0.0,0.0,0.0,0.0,0.0,0.0,0.0,0.0,0.0,0.0,0.0,0.0,0.0,.,.,.,.,.,.,.,.,.,.,.,.,.,.,.,.,.,.,.,.,.,.,.,.,.,.,.,.,.,.,.,.,.,.,.,.,.,.,.,.,.,.,.,.,.,.,.,.,.,.,.,.,.,.,.,.,,0.7666699999999995
6.15,9.38333,6.76666,0.282012,-0.002566,0.435549,0.700905,6.0,359.799347,-0.003502,10000.0,6634.67154,2.0,-0.200176,5.199824,-0.002571,10000.0,6634.67154,1.507251,-0.002449,-0.000901,3909.489014,14.199824,-0.531976,0.001248,-0.035297,-0.200653,674.083008,0.004925,0.004923,0.000171,0.000168,0.0,0.0,0.0,0.0,0.0,0.0,0.0,-1.0,0.0,0.0,0.0,0.0,0.0,0.0,0.0,0.0,0.0,0.0,0.0,0.0,0.0,.,.,.,.,.,.,.,.,.,.,.,.,.,.,.,.,.,.,.,.,.,.,.,.,.,.,.,.,.,.,.,.,.,.,.,.,.,.,.,.,.,.,.,.,.,.,.,.,.,.,.,.,.,.,.,.,,0.7833300000000012
6.167,9.4,6.799993,0.28138,-0.002578,0.435549,0.700905,6.0,359.797953,-0.003526,10000.0,6614.131185,2.0,-0.200304,5.199696,-0.00257,10000.0,6614.131185,1.511932,-0.002455,-0.000893,3909.51416,14.199696,-0.531976,0.001253,-0.035549,-0.202047,674.646606,0.004918,0.004916,0.000171,0.000167,0.0,0.0,0.0,0.0,0.0,0.0,0.0,-1.0,0.0,0.0,0.0,0.0,0.0,0.0,0.0,0.0,0.0,0.0,0.0,0.0,0.0,.,.,.,.,.,.,.,.,.,.,.,.,.,.,.,.,.,.,.,.,.,.,.,.,.,.,.,.,.,.,.,.,.,.,.,.,.,.,.,.,.,.,.,.,.,.,.,.,.,.,.,.,.,.,.,.,,0.8000000000000007
6.183,9.41667,6.799993,0.280758,-0.00259,0.435549,0.700905,6.0,359.796555,-0.003551,10000.0,6593.761675,2.0,-0.200435,5.199565,-0.002569,10000.0,6593.761675,1.516603,-0.002462,-0.000886,3909.539551,14.199565,-0.531975,0.001259,-0.035813,-0.203445,675.210571,0.004912,0.00491,0.000171,0.000167,0.0,0.0,0.0,0.0,0.0,0.0,0.0,-1.0,0.0,0.0,0.0,0.0,0.0,0.0,0.0,0.0,0.0,0.0,0.0,0.0,0.0,.,.,.,.,.,.,.,.,.,.,.,.,.,.,.,.,.,.,.,.,.,.,.,.,.,.,.,.,.,.,.,.,.,.,.,.,.,.,.,.,.,.,.,.,.,.,.,.,.,.,.,.,.,.,.,.,,0.8166700000000002
6.199,9.43333,6.833327,0.280144,-0.002602,0.435549,0.700905,6.0,359.795153,-0.003575,10000.0,6573.561544,2.0,-0.200566,5.199434,-0.002568,10000.0,6573.561544,1.521264,-0.002468,-0.000882,3909.564697,14.199434,-0.531974,0.001265,-0.036088,-0.204847,675.774475,0.004905,0.004903,0.000171,0.000167,0.0,0.0,0.0,0.0,0.0,0.0,0.0,-1.0,0.0,0.0,0.0,0.0,0.0,0.0,0.0,0.0,0.0,0.0,0.0,0.0,0.0,.,.,.,.,.,.,.,.,.,.,.,.,.,.,.,.,.,.,.,.,.,.,.,.,.,.,.,.,.,.,.,.,.,.,.,.,.,.,.,.,.,.,.,.,.,.,.,.,.,.,.,.,.,.,.,.,,0.8333300000000001
6.217,9.45,6.833327,0.27984,-0.002608,0.435549,0.700905,6.0,359.794451,-0.003588,10000.0,6563.524767,2.0,-0.200632,5.199368,-0.002568,10000.0,6563.524767,1.52359,-0.002471,-0.000881,3909.577393,14.199368,-0.531973,0.001268,-0.036229,-0.205549,676.056335,0.004902,0.0049,0.00017,0.000166,0.0,0.0,0.0,0.0,0.0,0.0,0.0,-1.0,0.0,0.0,0.0,0.0,0.0,0.0,0.0,0.0,0.0,0.0,0.0,0.0,0.0,.,.,.,.,.,.,.,.,.,.,.,.,.,.,.,.,.,.,.,.,.,.,.,.,.,.,.,.,.,.,.,.,.,.,.,.,.,.,.,.,.,.,.,.,.,.,.,.,.,.,.,.,.,.,.,.,,0.8499999999999996
6.233,9.46667,6.86666,0.278938,-0.002625,0.435549,0.700905,6.0,359.792338,-0.003624,10000.0,6533.658559,2.0,-0.200832,5.199168,-0.002566,10000.0,6533.658559,1.530555,-0.002481,-0.000881,3909.615723,14.199168,-0.531971,0.001278,-0.036663,-0.207662,676.90094,0.004892,0.00489,0.00017,0.000166,0.0,0.0,0.0,0.0,0.0,0.0,0.0,-1.0,0.0,0.0,0.0,0.0,0.0,0.0,0.0,0.0,0.0,0.0,0.0,0.0,0.0,.,.,.,.,.,.,.,.,.,.,.,.,.,.,.,.,.,.,.,.,.,.,.,.,.,.,.,.,.,.,.,.,.,.,.,.,.,.,.,.,.,.,.,.,.,.,.,.,.,.,.,.,.,.,.,.,,0.8666700000000009
6.249,9.48333,6.86666,0.278345,-0.002636,0.435549,0.700905,6.0,359.790926,-0.003649,10000.0,6513.950398,2.0,-0.200966,5.199034,-0.002565,10000.0,6513.950398,1.535186,-0.002488,-0.000885,3909.641113,14.199034,-0.531969,0.001284,-0.036959,-0.209074,677.463013,0.004886,0.004884,0.00017,0.000166,0.0,0.0,0.0,0.0,0.0,0.0,0.0,-1.0,0.0,0.0,0.0,0.0,0.0,0.0,0.0,0.0,0.0,0.0,0.0,0.0,0.0,.,.,.,.,.,.,.,.,.,.,.,.,.,.,.,.,.,.,.,.,.,.,.,.,.,.,.,.,.,.,.,.,.,.,.,.,.,.,.,.,.,.,.,.,.,.,.,.,.,.,.,.,.,.,.,.,,0.8833300000000008
6.266,9.5,6.899993,0.277756,-0.002647,0.435549,0.700905,6.0,359.78951,-0.003674,10000.0,6494.401501,2.0,-0.201102,5.198898,-0.002565,10000.0,6494.401501,1.539807,-0.002494,-0.000891,3909.666748,14.198898,-0.531967,0.00129,-0.037259,-0.21049,678.023987,0.00488,0.004878,0.000169,0.000165,0.0,0.0,0.0,0.0,0.0,0.0,0.0,-1.0,0.0,0.0,0.0,0.0,0.0,0.0,0.0,0.0,0.0,0.0,0.0,0.0,0.0,.,.,.,.,.,.,.,.,.,.,.,.,.,.,.,.,.,.,.,.,.,.,.,.,.,.,.,.,.,.,.,.,.,.,.,.,.,.,.,.,.,.,.,.,.,.,.,.,.,.,.,.,.,.,.,.,,0.9000000000000004
6.284,9.51667,6.899993,0.277173,-0.002657,0.435549,0.700905,6.0,359.78809,-0.003699,10000.0,6475.010571,2.0,-0.201238,5.198762,-0.002564,10000.0,6475.010571,1.544419,-0.0025,-0.0009,3909.692627,14.198762,-0.531965,0.001296,-0.037561,-0.21191,678.58374,0.004873,0.004871,0.000169,0.000165,0.0,0.0,0.0,0.0,0.0,0.0,0.0,-1.0,0.0,0.0,0.0,0.0,0.0,0.0,0.0,0.0,0.0,0.0,0.0,0.0,0.0,.,.,.,.,.,.,.,.,.,.,.,.,.,.,.,.,.,.,.,.,.,.,.,.,.,.,.,.,.,.,.,.,.,.,.,.,.,.,.,.,.,.,.,.,.,.,.,.,.,.,.,.,.,.,.,.,,0.9166699999999999
6.3,9.53333,6.933326,0.276593,-0.002668,0.435549,0.700905,6.0,359.786667,-0.003723,10000.0,6455.774837,2.0,-0.201375,5.198625,-0.002563,10000.0,6455.774837,1.549021,-0.002507,-0.000911,3909.718262,14.198625,-0.531963,0.001302,-0.037862,-0.213333,679.14209,0.004867,0.004865,0.000169,0.000165,0.0,0.0,0.0,0.0,0.0,0.0,0.0,-1.0,0.0,0.0,0.0,0.0,0.0,0.0,0.0,0.0,0.0,0.0,0.0,0.0,0.0,.,.,.,.,.,.,.,.,.,.,.,.,.,.,.,.,.,.,.,.,.,.,.,.,.,.,.,.,.,.,.,.,.,.,.,.,.,.,.,.,.,.,.,.,.,.,.,.,.,.,.,.,.,.,.,.,,0.9333299999999998
6.317,9.55,6.933326,0.276053,-0.002677,0.435549,0.700905,6.0,359.78533,-0.003747,10000.0,6437.881099,2.0,-0.201505,5.198495,-0.002562,10000.0,6437.881099,1.553326,-0.002513,-0.000924,3909.742676,14.198495,-0.531962,0.001308,-0.038144,-0.21467,679.664307,0.004861,0.004859,0.000169,0.000164,0.0,0.0,0.0,0.0,0.0,0.0,0.0,-1.0,0.0,0.0,0.0,0.0,0.0,0.0,0.0,0.0,0.0,0.0,0.0,0.0,0.0,.,.,.,.,.,.,.,.,.,.,.,.,.,.,.,.,.,.,.,.,.,.,.,.,.,.,.,.,.,.,.,.,.,.,.,.,.,.,.,.,.,.,.,.,.,.,.,.,.,.,.,.,.,.,.,.,,0.9500000000000011
6.334,9.56667,6.96666,0.275445,-0.002688,0.435549,0.700905,6.0,359.783811,-0.003773,10000.0,6417.762541,2.0,-0.201653,5.198347,-0.002561,10000.0,6417.762541,1.558196,-0.002519,-0.000941,3909.77002,14.198347,-0.53196,0.001313,-0.03846,-0.216189,680.254456,0.004855,0.004853,0.000168,0.000164,0.0,0.0,0.0,0.0,0.0,0.0,0.0,-1.0,0.0,0.0,0.0,0.0,0.0,0.0,0.0,0.0,0.0,0.0,0.0,0.0,0.0,.,.,.,.,.,.,.,.,.,.,.,.,.,.,.,.,.,.,.,.,.,.,.,.,.,.,.,.,.,.,.,.,.,.,.,.,.,.,.,.,.,.,.,.,.,.,.,.,.,.,.,.,.,.,.,.,,0.9666700000000006
6.349,9.58333,6.96666,0.274822,-0.002697,0.215815,0.0,6.0,359.782377,-0.003798,10000.0,6398.997227,2.0,-0.201793,5.198207,-0.00256,10000.0,6398.997227,1.562765,-0.002525,-0.00096,3909.796143,14.198207,-0.531958,0.001318,-0.038753,-0.217623,678.943054,0.004838,0.004836,0.000167,0.000163,0.0,0.0,0.0,0.0,0.0,0.0,0.0,-1.0,0.0,0.0,0.0,0.0,0.0,0.0,0.0,0.0,0.0,0.0,0.0,0.0,0.0,.,.,.,.,.,.,.,.,.,.,.,.,.,.,.,.,.,.,.,.,.,.,.,.,.,.,.,.,.,.,.,.,.,.,.,.,.,.,.,.,.,.,.,.,.,.,.,.,.,.,.,.,.,.,.,.,,0.9833300000000005
6.367,9.6,6.999993,0.273361,-0.002704,0.215815,0.0,6.0,359.78112,-0.00382,10000.0,6382.847364,2.0,-0.201917,5.198083,-0.002559,10000.0,6382.847364,1.56672,-0.002531,-0.00098,3909.818848,14.198083,-0.531957,0.001322,-0.03901,-0.21888,676.252808,0.004795,0.004793,0.000165,0.000161,0.0,0.0,0.0,0.0,0.0,0.0,0.0,-1.0,0.0,0.0,0.0,0.0,0.0,0.0,0.0,0.0,0.0,0.0,0.0,0.0,0.0,.,.,.,.,.,.,.,.,.,.,.,.,.,.,.,.,.,.,.,.,.,.,.,.,.,.,.,.,.,.,.,.,.,.,.,.,.,.,.,.,.,.,.,.,.,.,.,.,.,.,.,.,.,.,.,.,,1.0
6.383,9.61667,6.999993,0.269177,-0.002706,0.215815,0.0,6.0,359.7795,-0.003848,10000.0,6362.619996,2.0,-0.202077,5.197923,-0.002558,10000.0,6362.619996,1.571701,-0.002537,-0.001014,3909.848389,14.197923,-0.531955,0.001327,-0.03936,-0.2205,673.106079,0.004723,0.004721,0.000161,0.000157,0.0,0.0,0.0,0.0,0.0,0.0,0.0,-1.0,0.0,0.0,0.0,0.0,0.0,0.0,0.0,0.0,0.0,0.0,0.0,0.0,0.0,.,.,.,.,.,.,.,.,.,.,.,.,.,.,.,.,.,.,.,.,.,.,.,.,.,.,.,.,.,.,.,.,.,.,.,.,.,.,.,.,.,.,.,.,.,.,.,.,.,.,.,.,.,.,.,.,,1.0166699999999995
6.4,9.63333,7.033326,0.263795,-0.002705,0.215815,0.0,6.0,359.778056,-0.003874,10000.0,6345.199843,2.0,-0.202221,5.197779,-0.002557,10000.0,6345.199843,1.576016,-0.002543,-0.001049,3909.874512,14.197779,-0.531954,0.00133,-0.039715,-0.221944,670.686829,0.004655,0.004653,0.000158,0.000153,0.0,0.0,0.0,0.0,0.0,0.0,0.0,-1.0,0.0,0.0,0.0,0.0,0.0,0.0,0.0,0.0,0.0,0.0,0.0,0.0,0.0,.,.,.,.,.,.,.,.,.,.,.,.,.,.,.,.,.,.,.,.,.,.,.,.,.,.,.,.,.,.,.,.,.,.,.,.,.,.,.,.,.,.,.,.,.,.,.,.,.,.,.,.,.,.,.,.,,1.0333300000000012
6.416,9.65,7.033326,0.257682,-0.002703,0.215815,0.0,6.0,359.77661,-0.003899,10000.0,6328.305406,2.0,-0.202366,5.197634,-0.002556,10000.0,6328.305406,1.580223,-0.002548,-0.001088,3909.900879,14.197634,-0.531954,0.001333,-0.040133,-0.22339,668.645508,0.004588,0.004586,0.000154,0.000149,0.0,0.0,0.0,0.0,0.0,0.0,0.0,-1.0,0.0,0.0,0.0,0.0,0.0,0.0,0.0,0.0,0.0,0.0,0.0,0.0,0.0,.,.,.,.,.,.,.,.,.,.,.,.,.,.,.,.,.,.,.,.,.,.,.,.,.,.,.,.,.,.,.,.,.,.,.,.,.,.,.,.,.,.,.,.,.,.,.,.,.,.,.,.,.,.,.,.,,1.0500000000000007
6.434,9.66667,7.06666,0.251476,-0.002702,0.215815,0.0,6.0,359.77516,-0.003924,10000.0,6311.905311,2.0,-0.202511,5.197489,-0.002555,10000.0,6311.905311,1.584329,-0.002553,-0.001129,3909.927246,14.197489,-0.531954,0.001334,-0.040631,-0.22484,666.969177,0.004527,0.004525,0.000151,0.000146,0.0,0.0,0.0,0.0,0.0,0.0,0.0,-1.0,0.0,0.0,0.0,0.0,0.0,0.0,0.0,0.0,0.0,0.0,0.0,0.0,0.0,.,.,.,.,.,.,.,.,.,.,.,.,.,.,.,.,.,.,.,.,.,.,.,.,.,.,.,.,.,.,.,.,.,.,.,.,.,.,.,.,.,.,.,.,.,.,.,.,.,.,.,.,.,.,.,.,,1.0666700000000002
6.45,9.68333,7.06666,0.245633,-0.002704,0.435549,0.0,6.0,359.773707,-0.00395,10000.0,6295.941071,2.0,-0.202658,5.197342,-0.002554,10000.0,6295.941071,1.588347,-0.002558,-0.001168,3909.953613,14.197342,-0.531954,0.001335,-0.04122,-0.226293,667.493164,0.004482,0.004481,0.000149,0.000143,0.0,0.0,0.0,0.0,0.0,0.0,0.0,-1.0,0.0,0.0,0.0,0.0,0.0,0.0,0.0,0.0,0.0,0.0,0.0,0.0,0.0,.,.,.,.,.,.,.,.,.,.,.,.,.,.,.,.,.,.,.,.,.,.,.,.,.,.,.,.,.,.,.,.,.,.,.,.,.,.,.,.,.,.,.,.,.,.,.,.,.,.,.,.,.,.,.,.,,1.0833300000000001
6.466,9.7,7.099993,0.24164,-0.002712,0.435549,0.0,6.0,359.772343,-0.003973,10000.0,6281.182655,2.0,-0.202796,5.197204,-0.002553,10000.0,6281.182655,1.592079,-0.002563,-0.001199,3909.978516,14.197204,-0.531955,0.001335,-0.041854,-0.227657,669.90332,0.004476,0.004474,0.00015,0.000143,0.0,0.0,0.0,0.0,0.0,0.0,0.0,-1.0,0.0,0.0,0.0,0.0,0.0,0.0,0.0,0.0,0.0,0.0,0.0,0.0,0.0,.,.,.,.,.,.,.,.,.,.,.,.,.,.,.,.,.,.,.,.,.,.,.,.,.,.,.,.,.,.,.,.,.,.,.,.,.,.,.,.,.,.,.,.,.,.,.,.,.,.,.,.,.,.,.,.,,1.0999999999999996
6.483,9.71667,7.099993,0.23988,-0.002727,0.435549,0.0,6.0,359.770885,-0.003999,10000.0,6265.486498,2.0,-0.202945,5.197055,-0.002552,10000.0,6265.486498,1.596068,-0.002568,-0.001225,3910.005127,14.197055,-0.531955,0.001335,-0.0426,-0.229115,672.46228,0.004489,0.004487,0.000151,0.000144,0.0,0.0,0.0,0.0,0.0,0.0,0.0,-1.0,0.0,0.0,0.0,0.0,0.0,0.0,0.0,0.0,0.0,0.0,0.0,0.0,0.0,.,.,.,.,.,.,.,.,.,.,.,.,.,.,.,.,.,.,.,.,.,.,.,.,.,.,.,.,.,.,.,.,.,.,.,.,.,.,.,.,.,.,.,.,.,.,.,.,.,.,.,.,.,.,.,.,,1.116670000000001
6.5,9.73333,7.133326,0.240354,-0.00275,0.435549,0.0,6.0,359.769333,-0.004026,10000.0,6248.756839,2.0,-0.203104,5.196896,-0.002551,10000.0,6248.756839,1.600341,-0.002574,-0.001243,3910.033447,14.196896,-0.531956,0.001336,-0.043441,-0.230667,675.039551,0.004515,0.004513,0.000153,0.000146,0.0,0.0,0.0,0.0,0.0,0.0,0.0,-1.0,0.0,0.0,0.0,0.0,0.0,0.0,0.0,0.0,0.0,0.0,0.0,0.0,0.0,.,.,.,.,.,.,.,.,.,.,.,.,.,.,.,.,.,.,.,.,.,.,.,.,.,.,.,.,.,.,.,.,.,.,.,.,.,.,.,.,.,.,.,.,.,.,.,.,.,.,.,.,.,.,.,.,,1.1333300000000008
6.517,9.75,7.133326,0.24219,-0.002774,0.435549,0.0,6.0,359.767869,-0.004051,10000.0,6232.914133,2.0,-0.203255,5.196745,-0.002551,10000.0,6232.914133,1.604409,-0.00258,-0.001252,3910.060059,14.196745,-0.531956,0.001338,-0.044246,-0.232131,677.269043,0.004544,0.004542,0.000156,0.000148,0.0,0.0,0.0,0.0,0.0,0.0,0.0,-1.0,0.0,0.0,0.0,0.0,0.0,0.0,0.0,0.0,0.0,0.0,0.0,0.0,0.0,.,.,.,.,.,.,.,.,.,.,.,.,.,.,.,.,.,.,.,.,.,.,.,.,.,.,.,.,.,.,.,.,.,.,.,.,.,.,.,.,.,.,.,.,.,.,.,.,.,.,.,.,.,.,.,.,,1.1500000000000004
6.534,9.76667,7.166659,0.244699,-0.002799,0.435549,0.0,6.0,359.766403,-0.004077,10000.0,6216.966791,2.0,-0.203407,5.196593,-0.002551,10000.0,6216.966791,1.608525,-0.002586,-0.001257,3910.086914,14.196593,-0.531956,0.001341,-0.045035,-0.233597,679.285339,0.004573,0.004572,0.000158,0.00015,0.0,0.0,0.0,0.0,0.0,0.0,0.0,-1.0,0.0,0.0,0.0,0.0,0.0,0.0,0.0,0.0,0.0,0.0,0.0,0.0,0.0,.,.,.,.,.,.,.,.,.,.,.,.,.,.,.,.,.,.,.,.,.,.,.,.,.,.,.,.,.,.,.,.,.,.,.,.,.,.,.,.,.,.,.,.,.,.,.,.,.,.,.,.,.,.,.,.,,1.1666699999999999
6.549,9.78333,7.166659,0.247423,-0.002824,0.435549,0.700905,6.0,359.764933,-0.004103,10000.0,6200.923448,2.0,-0.20356,5.19644,-0.002551,10000.0,6200.923448,1.612687,-0.002592,-0.00126,3910.11377,14.19644,-0.531956,0.001346,-0.045783,-0.235067,681.088318,0.004601,0.004599,0.00016,0.000152,0.0,0.0,0.0,0.0,0.0,0.0,0.0,-1.0,0.0,0.0,0.0,0.0,0.0,0.0,0.0,0.0,0.0,0.0,0.0,0.0,0.0,.,.,.,.,.,.,.,.,.,.,.,.,.,.,.,.,.,.,.,.,.,.,.,.,.,.,.,.,.,.,.,.,.,.,.,.,.,.,.,.,.,.,.,.,.,.,.,.,.,.,.,.,.,.,.,.,,1.1833299999999998
6.567,9.8,7.199993,0.250077,-0.002848,0.435549,0.700905,6.0,359.76346,-0.004128,10000.0,6184.802179,2.0,-0.203714,5.196286,-0.002551,10000.0,6184.802179,1.616891,-0.002599,-0.001263,3910.140625,14.196286,-0.531955,0.001353,-0.046469,-0.23654,682.690796,0.004625,0.004624,0.000162,0.000154,0.0,0.0,0.0,0.0,0.0,0.0,0.0,-1.0,0.0,0.0,0.0,0.0,0.0,0.0,0.0,0.0,0.0,0.0,0.0,0.0,0.0,.,.,.,.,.,.,.,.,.,.,.,.,.,.,.,.,.,.,.,.,.,.,.,.,.,.,.,.,.,.,.,.,.,.,.,.,.,.,.,.,.,.,.,.,.,.,.,.,.,.,.,.,.,.,.,.,,1.200000000000001
6.584,9.81667,7.199993,0.252496,-0.00287,0.435549,0.700905,6.0,359.761984,-0.004154,10000.0,6168.626615,2.0,-0.203869,5.196131,-0.002551,10000.0,6168.626615,1.621131,-0.002605,-0.00127,3910.167725,14.196131,-0.531954,0.001361,-0.047079,-0.238016,684.112183,0.004646,0.004644,0.000164,0.000155,0.0,0.0,0.0,0.0,0.0,0.0,0.0,-1.0,0.0,0.0,0.0,0.0,0.0,0.0,0.0,0.0,0.0,0.0,0.0,0.0,0.0,.,.,.,.,.,.,.,.,.,.,.,.,.,.,.,.,.,.,.,.,.,.,.,.,.,.,.,.,.,.,.,.,.,.,.,.,.,.,.,.,.,.,.,.,.,.,.,.,.,.,.,.,.,.,.,.,,1.2166700000000006
6.599,9.83333,7.233326,0.254599,-0.002889,0.435549,0.700905,6.0,359.760503,-0.00418,10000.0,6152.419923,2.0,-0.204026,5.195974,-0.002551,10000.0,6152.419923,1.625401,-0.002612,-0.001282,3910.19458,14.195974,-0.531953,0.00137,-0.047603,-0.239496,685.374512,0.004663,0.004661,0.000165,0.000156,0.0,0.0,0.0,0.0,0.0,0.0,0.0,-1.0,0.0,0.0,0.0,0.0,0.0,0.0,0.0,0.0,0.0,0.0,0.0,0.0,0.0,.,.,.,.,.,.,.,.,.,.,.,.,.,.,.,.,.,.,.,.,.,.,.,.,.,.,.,.,.,.,.,.,.,.,.,.,.,.,.,.,.,.,.,.,.,.,.,.,.,.,.,.,.,.,.,.,,1.2333300000000005
6.617,9.85,7.233326,0.256157,-0.002903,0.435549,0.700905,6.0,359.759205,-0.004203,10000.0,6138.232968,2.0,-0.204163,5.195837,-0.002551,10000.0,6138.232968,1.629158,-0.002618,-0.001296,3910.218506,14.195837,-0.531952,0.001379,-0.047987,-0.240795,686.366089,0.004675,0.004674,0.000166,0.000157,0.0,0.0,0.0,0.0,0.0,0.0,0.0,-1.0,0.0,0.0,0.0,0.0,0.0,0.0,0.0,0.0,0.0,0.0,0.0,0.0,0.0,.,.,.,.,.,.,.,.,.,.,.,.,.,.,.,.,.,.,.,.,.,.,.,.,.,.,.,.,.,.,.,.,.,.,.,.,.,.,.,.,.,.,.,.,.,.,.,.,.,.,.,.,.,.,.,.,,1.25
6.634,9.86667,7.266659,0.257617,-0.002917,0.435549,0.700905,6.0,359.757718,-0.004229,10000.0,6122.029894,2.0,-0.204321,5.195679,-0.002551,10000.0,6122.029894,1.63347,-0.002624,-0.001318,3910.245605,14.195679,-0.531951,0.00139,-0.048337,-0.242282,687.389282,0.004686,0.004684,0.000166,0.000158,0.0,0.0,0.0,0.0,0.0,0.0,0.0,-1.0,0.0,0.0,0.0,0.0,0.0,0.0,0.0,0.0,0.0,0.0,0.0,0.0,0.0,.,.,.,.,.,.,.,.,.,.,.,.,.,.,.,.,.,.,.,.,.,.,.,.,.,.,.,.,.,.,.,.,.,.,.,.,.,.,.,.,.,.,.,.,.,.,.,.,.,.,.,.,.,.,.,.,,1.2666699999999995
6.649,9.88333,7.266659,0.258695,-0.002929,0.435549,0.0,6.0,359.756319,-0.004253,10000.0,6106.867384,2.0,-0.204471,5.195529,-0.002551,10000.0,6106.867384,1.637526,-0.00263,-0.001345,3910.27124,14.195529,-0.53195,0.0014,-0.048582,-0.243681,688.258301,0.004694,0.004692,0.000166,0.000158,0.0,0.0,0.0,0.0,0.0,0.0,0.0,-1.0,0.0,0.0,0.0,0.0,0.0,0.0,0.0,0.0,0.0,0.0,0.0,0.0,0.0,.,.,.,.,.,.,.,.,.,.,.,.,.,.,.,.,.,.,.,.,.,.,.,.,.,.,.,.,.,.,.,.,.,.,.,.,.,.,.,.,.,.,.,.,.,.,.,.,.,.,.,.,.,.,.,.,,1.2833300000000012
6.667,9.9,7.299993,0.259612,-0.00294,0.435549,0.0,6.0,359.75473,-0.004281,10000.0,6089.731807,2.0,-0.204641,5.195359,-0.002551,10000.0,6089.731807,1.642134,-0.002637,-0.00138,3910.300293,14.195359,-0.53195,0.001412,-0.048764,-0.24527,689.155823,0.0047,0.004698,0.000166,0.000158,0.0,0.0,0.0,0.0,0.0,0.0,0.0,-1.0,0.0,0.0,0.0,0.0,0.0,0.0,0.0,0.0,0.0,0.0,0.0,0.0,0.0,.,.,.,.,.,.,.,.,.,.,.,.,.,.,.,.,.,.,.,.,.,.,.,.,.,.,.,.,.,.,.,.,.,.,.,.,.,.,.,.,.,.,.,.,.,.,.,.,.,.,.,.,.,.,.,.,,1.3000000000000007
6.684,9.91667,7.299993,0.260184,-0.00295,0.435549,0.0,6.0,359.753323,-0.004305,10000.0,6074.667958,2.0,-0.204792,5.195208,-0.002551,10000.0,6074.667958,1.646206,-0.002643,-0.001416,3910.325928,14.195208,-0.53195,0.001422,-0.048847,-0.246677,689.884338,0.004703,0.004701,0.000166,0.000158,0.0,0.0,0.0,0.0,0.0,0.0,0.0,-1.0,0.0,0.0,0.0,0.0,0.0,0.0,0.0,0.0,0.0,0.0,0.0,0.0,0.0,.,.,.,.,.,.,.,.,.,.,.,.,.,.,.,.,.,.,.,.,.,.,.,.,.,.,.,.,.,.,.,.,.,.,.,.,.,.,.,.,.,.,.,.,.,.,.,.,.,.,.,.,.,.,.,.,,1.3166700000000002
6.7,9.93333,7.333326,0.260603,-0.002961,0.435549,0.0,6.0,359.751723,-0.004333,10000.0,6057.671234,2.0,-0.204966,5.195034,-0.00255,10000.0,6057.671234,1.650826,-0.00265,-0.001459,3910.35498,14.195034,-0.53195,0.001432,-0.048858,-0.248277,690.65155,0.004705,0.004703,0.000165,0.000158,0.0,0.0,0.0,0.0,0.0,0.0,0.0,-1.0,0.0,0.0,0.0,0.0,0.0,0.0,0.0,0.0,0.0,0.0,0.0,0.0,0.0,.,.,.,.,.,.,.,.,.,.,.,.,.,.,.,.,.,.,.,.,.,.,.,.,.,.,.,.,.,.,.,.,.,.,.,.,.,.,.,.,.,.,.,.,.,.,.,.,.,.,.,.,.,.,.,.,,1.3333300000000001
6.716,9.95,7.333326,0.260808,-0.002973,0.435549,0.0,6.0,359.750213,-0.00436,10000.0,6041.756111,2.0,-0.20513,5.19487,-0.00255,10000.0,6041.756111,1.655174,-0.002656,-0.001499,3910.382568,14.19487,-0.531951,0.001441,-0.048799,-0.249787,691.327759,0.004706,0.004704,0.000165,0.000158,0.0,0.0,0.0,0.0,0.0,0.0,0.0,-1.0,0.0,0.0,0.0,0.0,0.0,0.0,0.0,0.0,0.0,0.0,0.0,0.0,0.0,.,.,.,.,.,.,.,.,.,.,.,.,.,.,.,.,.,.,.,.,.,.,.,.,.,.,.,.,.,.,.,.,.,.,.,.,.,.,.,.,.,.,.,.,.,.,.,.,.,.,.,.,.,.,.,.,,1.3499999999999996
6.734,9.96667,7.366659,0.260875,-0.002988,0.435549,0.0,6.0,359.748697,-0.004386,10000.0,6025.926992,2.0,-0.205295,5.194705,-0.00255,10000.0,6025.926992,1.659523,-0.002663,-0.001534,3910.410156,14.194705,-0.531953,0.001448,-0.048682,-0.251303,691.968323,0.004706,0.004703,0.000164,0.000157,0.0,0.0,0.0,0.0,0.0,0.0,0.0,-1.0,0.0,0.0,0.0,0.0,0.0,0.0,0.0,0.0,0.0,0.0,0.0,0.0,0.0,.,.,.,.,.,.,.,.,.,.,.,.,.,.,.,.,.,.,.,.,.,.,.,.,.,.,.,.,.,.,.,.,.,.,.,.,.,.,.,.,.,.,.,.,.,.,.,.,.,.,.,.,.,.,.,.,,1.366670000000001
6.749,9.98333,7.366659,0.260835,-0.003002,0.435549,0.700905,6.0,359.747272,-0.004411,10000.0,6011.169015,2.0,-0.20545,5.19455,-0.00255,10000.0,6011.169015,1.663597,-0.002669,-0.001561,3910.436279,14.19455,-0.531955,0.001455,-0.048526,-0.252728,692.542725,0.004704,0.004702,0.000163,0.000157,0.0,0.0,0.0,0.0,0.0,0.0,0.0,-1.0,0.0,0.0,0.0,0.0,0.0,0.0,0.0,0.0,0.0,0.0,0.0,0.0,0.0,.,.,.,.,.,.,.,.,.,.,.,.,.,.,.,.,.,.,.,.,.,.,.,.,.,.,.,.,.,.,.,.,.,.,.,.,.,.,.,.,.,.,.,.,.,.,.,.,.,.,.,.,.,.,.,.,,1.3833300000000008
6.767,10.0,7.399993,0.260765,-0.003011,0.435549,0.700905,6.0,359.746415,-0.004426,10000.0,6002.354974,2.0,-0.205545,5.194455,-0.00255,10000.0,6002.354974,1.66604,-0.002672,-0.001574,3910.451904,14.194455,-0.531957,0.001458,-0.048415,-0.253585,692.877258,0.004703,0.004701,0.000163,0.000157,0.0,0.0,0.0,0.0,0.0,0.0,0.0,-1.0,0.0,0.0,0.0,0.0,0.0,0.0,0.0,0.0,0.0,0.0,0.0,0.0,0.0,.,.,.,.,.,.,.,.,.,.,.,.,.,.,.,.,.,.,.,.,.,.,.,.,.,.,.,.,.,.,.,.,.,.,.,.,.,.,.,.,.,.,.,.,.,.,.,.,.,.,.,.,.,.,.,.,,1.4000000000000004
6.783,10.0167,7.399993,0.260445,-0.003037,0.435549,0.700905,6.0,359.744123,-0.004466,10000.0,5979.002024,2.0,-0.205797,5.194203,-0.00255,10000.0,5979.002024,1.672548,-0.002682,-0.001599,3910.493652,14.194203,-0.531961,0.001468,-0.048062,-0.255877,693.739746,0.004699,0.004697,0.000162,0.000156,0.0,0.0,0.0,0.0,0.0,0.0,0.0,-1.0,0.0,0.0,0.0,0.0,0.0,0.0,0.0,0.0,0.0,0.0,0.0,0.0,0.0,.,.,.,.,.,.,.,.,.,.,.,.,.,.,.,.,.,.,.,.,.,.,.,.,.,.,.,.,.,.,.,.,.,.,.,.,.,.,.,.,.,.,.,.,.,.,.,.,.,.,.,.,.,.,.,.,,1.4167000000000005
6.799,10.0333,7.433326,0.26015,-0.003056,0.435549,0.700905,6.0,359.742589,-0.004493,10000.0,5963.558954,2.0,-0.205966,5.194034,-0.00255,10000.0,5963.558954,1.676879,-0.002688,-0.001608,3910.521484,14.194034,-0.531965,0.001474,-0.047794,-0.257411,694.295593,0.004696,0.004693,0.000161,0.000155,0.0,0.0,0.0,0.0,0.0,0.0,0.0,-1.0,0.0,0.0,0.0,0.0,0.0,0.0,0.0,0.0,0.0,0.0,0.0,0.0,0.0,.,.,.,.,.,.,.,.,.,.,.,.,.,.,.,.,.,.,.,.,.,.,.,.,.,.,.,.,.,.,.,.,.,.,.,.,.,.,.,.,.,.,.,.,.,.,.,.,.,.,.,.,.,.,.,.,,1.433300000000001
6.817,10.05,7.433326,0.259895,-0.003071,0.435549,0.700905,6.0,359.741435,-0.004513,10000.0,5952.043263,2.0,-0.206095,5.193905,-0.00255,10000.0,5952.043263,1.680124,-0.002693,-0.001611,3910.54248,14.193905,-0.531967,0.001479,-0.047581,-0.258565,694.70459,0.004693,0.004691,0.00016,0.000155,0.0,0.0,0.0,0.0,0.0,0.0,0.0,-1.0,0.0,0.0,0.0,0.0,0.0,0.0,0.0,0.0,0.0,0.0,0.0,0.0,0.0,.,.,.,.,.,.,.,.,.,.,.,.,.,.,.,.,.,.,.,.,.,.,.,.,.,.,.,.,.,.,.,.,.,.,.,.,.,.,.,.,.,.,.,.,.,.,.,.,.,.,.,.,.,.,.,.,,1.450000000000001
6.834,10.0667,7.466659,0.259446,-0.003094,0.435549,0.700905,6.0,359.739604,-0.004545,10000.0,5933.92948,2.0,-0.206299,5.193701,-0.002549,10000.0,5933.92948,1.685253,-0.002701,-0.001611,3910.575684,14.193701,-0.531972,0.001486,-0.047233,-0.260396,695.340942,0.004688,0.004686,0.000159,0.000155,0.0,0.0,0.0,0.0,0.0,0.0,0.0,-1.0,0.0,0.0,0.0,0.0,0.0,0.0,0.0,0.0,0.0,0.0,0.0,0.0,0.0,.,.,.,.,.,.,.,.,.,.,.,.,.,.,.,.,.,.,.,.,.,.,.,.,.,.,.,.,.,.,.,.,.,.,.,.,.,.,.,.,.,.,.,.,.,.,.,.,.,.,.,.,.,.,.,.,,1.4667000000000012
6.849,10.0833,7.466659,0.258985,-0.003114,0.215815,0.0,6.0,359.737961,-0.004573,10000.0,5917.851668,2.0,-0.206483,5.193517,-0.002549,10000.0,5917.851668,1.689832,-0.002708,-0.001607,3910.605713,14.193517,-0.531976,0.001493,-0.046921,-0.262039,694.5,0.004676,0.004674,0.000158,0.000154,0.0,0.0,0.0,0.0,0.0,0.0,0.0,-1.0,0.0,0.0,0.0,0.0,0.0,0.0,0.0,0.0,0.0,0.0,0.0,0.0,0.0,.,.,.,.,.,.,.,.,.,.,.,.,.,.,.,.,.,.,.,.,.,.,.,.,.,.,.,.,.,.,.,.,.,.,.,.,.,.,.,.,.,.,.,.,.,.,.,.,.,.,.,.,.,.,.,.,,1.4832999999999998
6.866,10.1,7.499993,0.257555,-0.00313,0.215815,0.0,6.0,359.736411,-0.0046,10000.0,5902.965047,2.0,-0.206658,5.193342,-0.002549,10000.0,5902.965047,1.694094,-0.002715,-0.001604,3910.633789,14.193342,-0.53198,0.0015,-0.04664,-0.263589,691.381226,0.004631,0.004629,0.000156,0.000151,0.0,0.0,0.0,0.0,0.0,0.0,0.0,-1.0,0.0,0.0,0.0,0.0,0.0,0.0,0.0,0.0,0.0,0.0,0.0,0.0,0.0,.,.,.,.,.,.,.,.,.,.,.,.,.,.,.,.,.,.,.,.,.,.,.,.,.,.,.,.,.,.,.,.,.,.,.,.,.,.,.,.,.,.,.,.,.,.,.,.,.,.,.,.,.,.,.,.,,1.5
6.883,10.1167,7.499993,0.254111,-0.00314,0.215815,0.0,6.0,359.734857,-0.004628,10000.0,5888.451553,2.0,-0.206833,5.193167,-0.002549,10000.0,5888.451553,1.698269,-0.002722,-0.001605,3910.662109,14.193167,-0.531983,0.001508,-0.046397,-0.265143,688.523315,0.004571,0.004568,0.000152,0.000148,0.0,0.0,0.0,0.0,0.0,0.0,0.0,-1.0,0.0,0.0,0.0,0.0,0.0,0.0,0.0,0.0,0.0,0.0,0.0,0.0,0.0,.,.,.,.,.,.,.,.,.,.,.,.,.,.,.,.,.,.,.,.,.,.,.,.,.,.,.,.,.,.,.,.,.,.,.,.,.,.,.,.,.,.,.,.,.,.,.,.,.,.,.,.,.,.,.,.,,1.5167000000000002
6.9,10.1333,7.533326,0.249419,-0.003144,0.215815,0.0,6.0,359.733398,-0.004653,10000.0,5875.228246,2.0,-0.206999,5.193001,-0.002549,10000.0,5875.228246,1.702092,-0.002728,-0.001611,3910.688721,14.193001,-0.531987,0.001514,-0.046232,-0.266602,686.157532,0.004509,0.004507,0.000148,0.000144,0.0,0.0,0.0,0.0,0.0,0.0,0.0,-1.0,0.0,0.0,0.0,0.0,0.0,0.0,0.0,0.0,0.0,0.0,0.0,0.0,0.0,.,.,.,.,.,.,.,.,.,.,.,.,.,.,.,.,.,.,.,.,.,.,.,.,.,.,.,.,.,.,.,.,.,.,.,.,.,.,.,.,.,.,.,.,.,.,.,.,.,.,.,.,.,.,.,.,,1.5333000000000006
6.917,10.15,7.533326,0.243244,-0.003146,0.215815,0.0,6.0,359.73174,-0.004682,10000.0,5860.691375,2.0,-0.207189,5.192811,-0.002549,10000.0,5860.691375,1.706314,-0.002734,-0.001623,3910.71875,14.192811,-0.531991,0.001521,-0.046151,-0.26826,683.871582,0.004441,0.004439,0.000144,0.00014,0.0,0.0,0.0,0.0,0.0,0.0,0.0,-1.0,0.0,0.0,0.0,0.0,0.0,0.0,0.0,0.0,0.0,0.0,0.0,0.0,0.0,.,.,.,.,.,.,.,.,.,.,.,.,.,.,.,.,.,.,.,.,.,.,.,.,.,.,.,.,.,.,.,.,.,.,.,.,.,.,.,.,.,.,.,.,.,.,.,.,.,.,.,.,.,.,.,.,,1.5500000000000007
6.933,10.1667,7.566659,0.23912,-0.003147,0.215815,0.0,6.0,359.730666,-0.004701,10000.0,5851.528573,2.0,-0.207312,5.192688,-0.002549,10000.0,5851.528573,1.708986,-0.002738,-0.001632,3910.738525,14.192688,-0.531994,0.001524,-0.046168,-0.269334,682.612732,0.004399,0.004397,0.000142,0.000138,0.0,0.0,0.0,0.0,0.0,0.0,0.0,-1.0,0.0,0.0,0.0,0.0,0.0,0.0,0.0,0.0,0.0,0.0,0.0,0.0,0.0,.,.,.,.,.,.,.,.,.,.,.,.,.,.,.,.,.,.,.,.,.,.,.,.,.,.,.,.,.,.,.,.,.,.,.,.,.,.,.,.,.,.,.,.,.,.,.,.,.,.,.,.,.,.,.,.,,1.5667000000000009
6.95,10.1833,7.566659,0.231552,-0.003149,0.435549,0.700905,6.0,359.728613,-0.004737,10000.0,5834.516775,2.0,-0.207549,5.192451,-0.002549,10000.0,5834.516775,1.713969,-0.002746,-0.00165,3910.775879,14.192451,-0.532,0.00153,-0.046373,-0.271387,682.055969,0.004334,0.004332,0.000139,0.000134,0.0,0.0,0.0,0.0,0.0,0.0,0.0,-1.0,0.0,0.0,0.0,0.0,0.0,0.0,0.0,0.0,0.0,0.0,0.0,0.0,0.0,.,.,.,.,.,.,.,.,.,.,.,.,.,.,.,.,.,.,.,.,.,.,.,.,.,.,.,.,.,.,.,.,.,.,.,.,.,.,.,.,.,.,.,.,.,.,.,.,.,.,.,.,.,.,.,.,,1.5832999999999995
6.967,10.2,7.599992,0.227258,-0.003155,0.435549,0.700905,6.0,359.727046,-0.004764,10000.0,5821.808658,2.0,-0.20773,5.19227,-0.002548,10000.0,5821.808658,1.717711,-0.002752,-0.001659,3910.804443,14.19227,-0.532004,0.001533,-0.046681,-0.272954,684.558411,0.004325,0.004323,0.000138,0.000134,0.0,0.0,0.0,0.0,0.0,0.0,0.0,-1.0,0.0,0.0,0.0,0.0,0.0,0.0,0.0,0.0,0.0,0.0,0.0,0.0,0.0,.,.,.,.,.,.,.,.,.,.,.,.,.,.,.,.,.,.,.,.,.,.,.,.,.,.,.,.,.,.,.,.,.,.,.,.,.,.,.,.,.,.,.,.,.,.,.,.,.,.,.,.,.,.,.,.,,1.5999999999999996
6.983,10.2167,7.599992,0.225449,-0.003167,0.435549,0.700905,6.0,359.725476,-0.004791,10000.0,5809.137274,2.0,-0.207913,5.192087,-0.002548,10000.0,5809.137274,1.721458,-0.002758,-0.001661,3910.833008,14.192087,-0.532008,0.001535,-0.047101,-0.274524,687.064087,0.004337,0.004335,0.00014,0.000134,0.0,0.0,0.0,0.0,0.0,0.0,0.0,-1.0,0.0,0.0,0.0,0.0,0.0,0.0,0.0,0.0,0.0,0.0,0.0,0.0,0.0,.,.,.,.,.,.,.,.,.,.,.,.,.,.,.,.,.,.,.,.,.,.,.,.,.,.,.,.,.,.,.,.,.,.,.,.,.,.,.,.,.,.,.,.,.,.,.,.,.,.,.,.,.,.,.,.,,1.6166999999999998
6.999,10.2333,7.633326,0.225569,-0.00318,0.435549,0.700905,6.0,359.724199,-0.004814,10000.0,5798.810113,2.0,-0.208063,5.191937,-0.002548,10000.0,5798.810113,1.724524,-0.002763,-0.001654,3910.856445,14.191937,-0.532012,0.001537,-0.047506,-0.2758,689.015869,0.004356,0.004354,0.000141,0.000136,0.0,0.0,0.0,0.0,0.0,0.0,0.0,-1.0,0.0,0.0,0.0,0.0,0.0,0.0,0.0,0.0,0.0,0.0,0.0,0.0,0.0,.,.,.,.,.,.,.,.,.,.,.,.,.,.,.,.,.,.,.,.,.,.,.,.,.,.,.,.,.,.,.,.,.,.,.,.,.,.,.,.,.,.,.,.,.,.,.,.,.,.,.,.,.,.,.,.,,1.6333000000000002
7.017,10.25,7.633326,0.226469,-0.003192,0.435549,0.700905,6.0,359.723118,-0.004833,10000.0,5790.028662,2.0,-0.208189,5.191811,-0.002548,10000.0,5790.028662,1.72714,-0.002767,-0.001641,3910.876221,14.191811,-0.532014,0.001539,-0.047881,-0.276882,690.578064,0.004375,0.004373,0.000142,0.000137,0.0,0.0,0.0,0.0,0.0,0.0,0.0,-1.0,0.0,0.0,0.0,0.0,0.0,0.0,0.0,0.0,0.0,0.0,0.0,0.0,0.0,.,.,.,.,.,.,.,.,.,.,.,.,.,.,.,.,.,.,.,.,.,.,.,.,.,.,.,.,.,.,.,.,.,.,.,.,.,.,.,.,.,.,.,.,.,.,.,.,.,.,.,.,.,.,.,.,,1.6500000000000004
7.034,10.2667,7.666659,0.229841,-0.00322,0.435549,0.700905,6.0,359.720754,-0.004874,10000.0,5770.709087,2.0,-0.208469,5.191531,-0.002548,10000.0,5770.709087,1.732923,-0.002777,-0.0016,3910.919434,14.191531,-0.532018,0.001543,-0.048752,-0.279246,693.651611,0.004418,0.004416,0.000146,0.000139,0.0,0.0,0.0,0.0,0.0,0.0,0.0,-1.0,0.0,0.0,0.0,0.0,0.0,0.0,0.0,0.0,0.0,0.0,0.0,0.0,0.0,.,.,.,.,.,.,.,.,.,.,.,.,.,.,.,.,.,.,.,.,.,.,.,.,.,.,.,.,.,.,.,.,.,.,.,.,.,.,.,.,.,.,.,.,.,.,.,.,.,.,.,.,.,.,.,.,,1.6667000000000005
7.049,10.2833,7.666659,0.232495,-0.003237,0.435549,0.700905,6.0,359.719174,-0.004901,10000.0,5757.711535,2.0,-0.208657,5.191343,-0.002548,10000.0,5757.711535,1.736835,-0.002784,-0.001567,3910.948486,14.191343,-0.53202,0.001547,-0.049338,-0.280826,695.4375,0.004445,0.004443,0.000148,0.000141,0.0,0.0,0.0,0.0,0.0,0.0,0.0,-1.0,0.0,0.0,0.0,0.0,0.0,0.0,0.0,0.0,0.0,0.0,0.0,0.0,0.0,.,.,.,.,.,.,.,.,.,.,.,.,.,.,.,.,.,.,.,.,.,.,.,.,.,.,.,.,.,.,.,.,.,.,.,.,.,.,.,.,.,.,.,.,.,.,.,.,.,.,.,.,.,.,.,.,,1.683300000000001
7.066,10.3,7.699992,0.234947,-0.003249,0.435549,0.700905,6.0,359.717691,-0.004927,10000.0,5745.454276,2.0,-0.208833,5.191167,-0.002547,10000.0,5745.454276,1.740541,-0.00279,-0.001534,3910.975586,14.191167,-0.53202,0.001552,-0.04987,-0.282309,696.930176,0.004468,0.004465,0.00015,0.000143,0.0,0.0,0.0,0.0,0.0,0.0,0.0,-1.0,0.0,0.0,0.0,0.0,0.0,0.0,0.0,0.0,0.0,0.0,0.0,0.0,0.0,.,.,.,.,.,.,.,.,.,.,.,.,.,.,.,.,.,.,.,.,.,.,.,.,.,.,.,.,.,.,.,.,.,.,.,.,.,.,.,.,.,.,.,.,.,.,.,.,.,.,.,.,.,.,.,.,,1.700000000000001
7.083,10.3167,7.699992,0.237505,-0.00326,0.435549,0.700905,6.0,359.716006,-0.004957,10000.0,5731.498485,2.0,-0.209035,5.190965,-0.002547,10000.0,5731.498485,1.744779,-0.002796,-0.001499,3911.006348,14.190965,-0.53202,0.001557,-0.050433,-0.283994,698.428711,0.00449,0.004488,0.000151,0.000144,0.0,0.0,0.0,0.0,0.0,0.0,0.0,-1.0,0.0,0.0,0.0,0.0,0.0,0.0,0.0,0.0,0.0,0.0,0.0,0.0,0.0,.,.,.,.,.,.,.,.,.,.,.,.,.,.,.,.,.,.,.,.,.,.,.,.,.,.,.,.,.,.,.,.,.,.,.,.,.,.,.,.,.,.,.,.,.,.,.,.,.,.,.,.,.,.,.,.,,1.7167000000000012
7.1,10.3333,7.733326,0.239608,-0.003268,0.435549,0.700905,6.0,359.714417,-0.004984,10000.0,5718.321632,2.0,-0.209227,5.190773,-0.002547,10000.0,5718.321632,1.7488,-0.002803,-0.001471,3911.0354,14.190773,-0.532019,0.001562,-0.050913,-0.285583,699.67334,0.004507,0.004505,0.000152,0.000145,0.0,0.0,0.0,0.0,0.0,0.0,0.0,-1.0,0.0,0.0,0.0,0.0,0.0,0.0,0.0,0.0,0.0,0.0,0.0,0.0,0.0,.,.,.,.,.,.,.,.,.,.,.,.,.,.,.,.,.,.,.,.,.,.,.,.,.,.,.,.,.,.,.,.,.,.,.,.,.,.,.,.,.,.,.,.,.,.,.,.,.,.,.,.,.,.,.,.,,1.7332999999999998
7.117,10.35,7.733326,0.241384,-0.003272,0.435549,0.700905,6.0,359.712824,-0.005012,10000.0,5705.124521,2.0,-0.20942,5.19058,-0.002547,10000.0,5705.124521,1.752846,-0.002809,-0.001449,3911.064697,14.19058,-0.532018,0.001568,-0.051337,-0.287176,700.779602,0.004521,0.004519,0.000153,0.000146,0.0,0.0,0.0,0.0,0.0,0.0,0.0,-1.0,0.0,0.0,0.0,0.0,0.0,0.0,0.0,0.0,0.0,0.0,0.0,0.0,0.0,.,.,.,.,.,.,.,.,.,.,.,.,.,.,.,.,.,.,.,.,.,.,.,.,.,.,.,.,.,.,.,.,.,.,.,.,.,.,.,.,.,.,.,.,.,.,.,.,.,.,.,.,.,.,.,.,,1.75
7.133,10.3667,7.766659,0.242834,-0.003275,0.435549,0.700905,6.0,359.711227,-0.00504,10000.0,5691.923686,2.0,-0.209613,5.190387,-0.002547,10000.0,5691.923686,1.756911,-0.002815,-0.001435,3911.093994,14.190387,-0.532015,0.001573,-0.051699,-0.288773,701.768127,0.004532,0.00453,0.000154,0.000147,0.0,0.0,0.0,0.0,0.0,0.0,0.0,-1.0,0.0,0.0,0.0,0.0,0.0,0.0,0.0,0.0,0.0,0.0,0.0,0.0,0.0,.,.,.,.,.,.,.,.,.,.,.,.,.,.,.,.,.,.,.,.,.,.,.,.,.,.,.,.,.,.,.,.,.,.,.,.,.,.,.,.,.,.,.,.,.,.,.,.,.,.,.,.,.,.,.,.,,1.7667000000000002
7.149,10.3833,7.766659,0.243977,-0.003277,0.435549,0.0,6.0,359.709626,-0.005068,10000.0,5678.735746,2.0,-0.209809,5.190191,-0.002546,10000.0,5678.735746,1.760992,-0.00282,-0.001428,3911.123291,14.190191,-0.532013,0.001578,-0.051999,-0.290374,702.657959,0.00454,0.004538,0.000154,0.000147,0.0,0.0,0.0,0.0,0.0,0.0,0.0,-1.0,0.0,0.0,0.0,0.0,0.0,0.0,0.0,0.0,0.0,0.0,0.0,0.0,0.0,.,.,.,.,.,.,.,.,.,.,.,.,.,.,.,.,.,.,.,.,.,.,.,.,.,.,.,.,.,.,.,.,.,.,.,.,.,.,.,.,.,.,.,.,.,.,.,.,.,.,.,.,.,.,.,.,,1.7833000000000006
7.167,10.4,7.799992,0.244844,-0.003279,0.435549,0.0,6.0,359.708021,-0.005096,10000.0,5665.573955,2.0,-0.210004,5.189996,-0.002546,10000.0,5665.573955,1.765083,-0.002826,-0.00143,3911.152588,14.189996,-0.53201,0.001582,-0.052237,-0.291979,703.465759,0.004546,0.004544,0.000154,0.000147,0.0,0.0,0.0,0.0,0.0,0.0,0.0,-1.0,0.0,0.0,0.0,0.0,0.0,0.0,0.0,0.0,0.0,0.0,0.0,0.0,0.0,.,.,.,.,.,.,.,.,.,.,.,.,.,.,.,.,.,.,.,.,.,.,.,.,.,.,.,.,.,.,.,.,.,.,.,.,.,.,.,.,.,.,.,.,.,.,.,.,.,.,.,.,.,.,.,.,,1.8000000000000007
7.183,10.4167,7.799992,0.245469,-0.003284,0.435549,0.0,6.0,359.706411,-0.005124,10000.0,5652.450181,2.0,-0.210203,5.189797,-0.002546,10000.0,5652.450181,1.769181,-0.002831,-0.00144,3911.182129,14.189797,-0.532007,0.001585,-0.052416,-0.293589,704.206177,0.00455,0.004547,0.000154,0.000147,0.0,0.0,0.0,0.0,0.0,0.0,0.0,-1.0,0.0,0.0,0.0,0.0,0.0,0.0,0.0,0.0,0.0,0.0,0.0,0.0,0.0,.,.,.,.,.,.,.,.,.,.,.,.,.,.,.,.,.,.,.,.,.,.,.,.,.,.,.,.,.,.,.,.,.,.,.,.,.,.,.,.,.,.,.,.,.,.,.,.,.,.,.,.,.,.,.,.,,1.8167000000000009
7.199,10.4333,7.833325,0.245888,-0.00329,0.435549,0.0,6.0,359.704797,-0.005152,10000.0,5639.372661,2.0,-0.210401,5.189599,-0.002546,10000.0,5639.372661,1.773284,-0.002836,-0.001457,3911.21167,14.189599,-0.532004,0.001588,-0.05254,-0.295203,704.891418,0.004552,0.004549,0.000154,0.000147,0.0,0.0,0.0,0.0,0.0,0.0,0.0,-1.0,0.0,0.0,0.0,0.0,0.0,0.0,0.0,0.0,0.0,0.0,0.0,0.0,0.0,.,.,.,.,.,.,.,.,.,.,.,.,.,.,.,.,.,.,.,.,.,.,.,.,.,.,.,.,.,.,.,.,.,.,.,.,.,.,.,.,.,.,.,.,.,.,.,.,.,.,.,.,.,.,.,.,,1.8332999999999995
7.217,10.45,7.833325,0.246133,-0.0033,0.435549,0.0,6.0,359.703178,-0.005181,10000.0,5626.349852,2.0,-0.210601,5.189399,-0.002545,10000.0,5626.349852,1.777389,-0.002841,-0.00148,3911.241211,14.189399,-0.532001,0.001591,-0.052613,-0.296822,705.53186,0.004552,0.00455,0.000154,0.000147,0.0,0.0,0.0,0.0,0.0,0.0,0.0,-1.0,0.0,0.0,0.0,0.0,0.0,0.0,0.0,0.0,0.0,0.0,0.0,0.0,0.0,.,.,.,.,.,.,.,.,.,.,.,.,.,.,.,.,.,.,.,.,.,.,.,.,.,.,.,.,.,.,.,.,.,.,.,.,.,.,.,.,.,.,.,.,.,.,.,.,.,.,.,.,.,.,.,.,,1.8499999999999996
7.234,10.4667,7.866659,0.246238,-0.003313,0.435549,0.0,6.0,359.701555,-0.005209,10000.0,5613.387427,2.0,-0.210802,5.189198,-0.002545,10000.0,5613.387427,1.781494,-0.002846,-0.001507,3911.270752,14.189198,-0.531999,0.001593,-0.052639,-0.298445,706.136108,0.004552,0.00455,0.000153,0.000147,0.0,0.0,0.0,0.0,0.0,0.0,0.0,-1.0,0.0,0.0,0.0,0.0,0.0,0.0,0.0,0.0,0.0,0.0,0.0,0.0,0.0,.,.,.,.,.,.,.,.,.,.,.,.,.,.,.,.,.,.,.,.,.,.,.,.,.,.,.,.,.,.,.,.,.,.,.,.,.,.,.,.,.,.,.,.,.,.,.,.,.,.,.,.,.,.,.,.,,1.8666999999999998
7.25,10.4833,7.866659,0.246228,-0.003328,0.435549,0.700905,6.0,359.699927,-0.005237,10000.0,5600.489453,2.0,-0.211006,5.188994,-0.002545,10000.0,5600.489453,1.785597,-0.002852,-0.001536,3911.300537,14.188994,-0.531997,0.001596,-0.052622,-0.300073,706.711121,0.00455,0.004548,0.000153,0.000147,0.0,0.0,0.0,0.0,0.0,0.0,0.0,-1.0,0.0,0.0,0.0,0.0,0.0,0.0,0.0,0.0,0.0,0.0,0.0,0.0,0.0,.,.,.,.,.,.,.,.,.,.,.,.,.,.,.,.,.,.,.,.,.,.,.,.,.,.,.,.,.,.,.,.,.,.,.,.,.,.,.,.,.,.,.,.,.,.,.,.,.,.,.,.,.,.,.,.,,1.8833000000000002
7.267,10.5,7.899992,0.246116,-0.003347,0.435549,0.700905,6.0,359.698294,-0.005266,10000.0,5587.660664,2.0,-0.21121,5.18879,-0.002545,10000.0,5587.660664,1.789697,-0.002857,-0.001565,3911.330322,14.18879,-0.531995,0.0016,-0.052565,-0.301706,707.262634,0.004548,0.004546,0.000152,0.000147,0.0,0.0,0.0,0.0,0.0,0.0,0.0,-1.0,0.0,0.0,0.0,0.0,0.0,0.0,0.0,0.0,0.0,0.0,0.0,0.0,0.0,.,.,.,.,.,.,.,.,.,.,.,.,.,.,.,.,.,.,.,.,.,.,.,.,.,.,.,.,.,.,.,.,.,.,.,.,.,.,.,.,.,.,.,.,.,.,.,.,.,.,.,.,.,.,.,.,,1.9000000000000004
7.283,10.5167,7.899992,0.245936,-0.003366,0.435549,0.700905,6.0,359.69676,-0.005293,10000.0,5575.699052,2.0,-0.211402,5.188598,-0.002545,10000.0,5575.699052,1.793537,-0.002862,-0.001592,3911.358398,14.188598,-0.531994,0.001604,-0.052478,-0.30324,707.762512,0.004546,0.004544,0.000152,0.000147,0.0,0.0,0.0,0.0,0.0,0.0,0.0,-1.0,0.0,0.0,0.0,0.0,0.0,0.0,0.0,0.0,0.0,0.0,0.0,0.0,0.0,.,.,.,.,.,.,.,.,.,.,.,.,.,.,.,.,.,.,.,.,.,.,.,.,.,.,.,.,.,.,.,.,.,.,.,.,.,.,.,.,.,.,.,.,.,.,.,.,.,.,.,.,.,.,.,.,,1.9167000000000005
7.3,10.5333,7.933325,0.245667,-0.00339,0.435549,0.700905,6.0,359.695018,-0.005323,10000.0,5562.220276,2.0,-0.211622,5.188378,-0.002544,10000.0,5562.220276,1.797883,-0.002868,-0.00162,3911.390137,14.188378,-0.531994,0.001609,-0.052348,-0.304982,708.312805,0.004543,0.00454,0.000151,0.000146,0.0,0.0,0.0,0.0,0.0,0.0,0.0,-1.0,0.0,0.0,0.0,0.0,0.0,0.0,0.0,0.0,0.0,0.0,0.0,0.0,0.0,.,.,.,.,.,.,.,.,.,.,.,.,.,.,.,.,.,.,.,.,.,.,.,.,.,.,.,.,.,.,.,.,.,.,.,.,.,.,.,.,.,.,.,.,.,.,.,.,.,.,.,.,.,.,.,.,,1.933300000000001
7.316,10.55,7.933325,0.245367,-0.003413,0.435549,0.700905,6.0,359.693373,-0.005352,10000.0,5549.611539,2.0,-0.21183,5.18817,-0.002544,10000.0,5549.611539,1.801968,-0.002874,-0.001644,3911.420166,14.18817,-0.531994,0.001616,-0.052199,-0.306627,708.818176,0.004539,0.004537,0.00015,0.000146,0.0,0.0,0.0,0.0,0.0,0.0,0.0,-1.0,0.0,0.0,0.0,0.0,0.0,0.0,0.0,0.0,0.0,0.0,0.0,0.0,0.0,.,.,.,.,.,.,.,.,.,.,.,.,.,.,.,.,.,.,.,.,.,.,.,.,.,.,.,.,.,.,.,.,.,.,.,.,.,.,.,.,.,.,.,.,.,.,.,.,.,.,.,.,.,.,.,.,,1.950000000000001
7.334,10.5667,7.966659,0.24503,-0.003437,0.435549,0.700905,6.0,359.691725,-0.00538,10000.0,5537.078842,2.0,-0.212038,5.187962,-0.002544,10000.0,5537.078842,1.806047,-0.002879,-0.001666,3911.450195,14.187962,-0.531994,0.001623,-0.052033,-0.308275,709.313721,0.004536,0.004533,0.00015,0.000146,0.0,0.0,0.0,0.0,0.0,0.0,0.0,-1.0,0.0,0.0,0.0,0.0,0.0,0.0,0.0,0.0,0.0,0.0,0.0,0.0,0.0,.,.,.,.,.,.,.,.,.,.,.,.,.,.,.,.,.,.,.,.,.,.,.,.,.,.,.,.,.,.,.,.,.,.,.,.,.,.,.,.,.,.,.,.,.,.,.,.,.,.,.,.,.,.,.,.,,1.9667000000000012
7.349,10.5833,7.966659,0.244662,-0.003461,0.435549,0.700905,6.0,359.690074,-0.005409,10000.0,5524.622269,2.0,-0.212249,5.187751,-0.002544,10000.0,5524.622269,1.81012,-0.002886,-0.001685,3911.480469,14.187751,-0.531994,0.001632,-0.051854,-0.309926,709.80127,0.004532,0.004529,0.000149,0.000146,0.0,0.0,0.0,0.0,0.0,0.0,0.0,-1.0,0.0,0.0,0.0,0.0,0.0,0.0,0.0,0.0,0.0,0.0,0.0,0.0,0.0,.,.,.,.,.,.,.,.,.,.,.,.,.,.,.,.,.,.,.,.,.,.,.,.,.,.,.,.,.,.,.,.,.,.,.,.,.,.,.,.,.,.,.,.,.,.,.,.,.,.,.,.,.,.,.,.,,1.9832999999999998
7.366,10.6,7.999992,0.244269,-0.003484,0.435549,0.700905,6.0,359.688419,-0.005438,10000.0,5512.242264,2.0,-0.212461,5.187539,-0.002543,10000.0,5512.242264,1.814186,-0.002892,-0.001702,3911.510498,14.187539,-0.531995,0.001642,-0.05167,-0.31158,710.282349,0.004528,0.004525,0.000149,0.000145,0.0,0.0,0.0,0.0,0.0,0.0,0.0,-1.0,0.0,0.0,0.0,0.0,0.0,0.0,0.0,0.0,0.0,0.0,0.0,0.0,0.0,.,.,.,.,.,.,.,.,.,.,.,.,.,.,.,.,.,.,.,.,.,.,.,.,.,.,.,.,.,.,.,.,.,.,.,.,.,.,.,.,.,.,.,.,.,.,.,.,.,.,.,.,.,.,.,.,,2.0
7.383,10.6167,7.999992,0.243856,-0.003505,0.435549,0.700905,6.0,359.686762,-0.005467,10000.0,5499.939255,2.0,-0.212675,5.187325,-0.002543,10000.0,5499.939255,1.818244,-0.002898,-0.001717,3911.540771,14.187325,-0.531997,0.001653,-0.051486,-0.313238,710.758057,0.004523,0.004521,0.000148,0.000145,0.0,0.0,0.0,0.0,0.0,0.0,0.0,-1.0,0.0,0.0,0.0,0.0,0.0,0.0,0.0,0.0,0.0,0.0,0.0,0.0,0.0,.,.,.,.,.,.,.,.,.,.,.,.,.,.,.,.,.,.,.,.,.,.,.,.,.,.,.,.,.,.,.,.,.,.,.,.,.,.,.,.,.,.,.,.,.,.,.,.,.,.,.,.,.,.,.,.,,2.0167
7.4,10.6333,8.033325,0.243427,-0.003524,0.435549,0.700905,6.0,359.685101,-0.005496,10000.0,5487.714018,2.0,-0.212889,5.187111,-0.002543,10000.0,5487.714018,1.822295,-0.002904,-0.00173,3911.571289,14.187111,-0.531998,0.001665,-0.051309,-0.314899,711.23053,0.004518,0.004516,0.000148,0.000145,0.0,0.0,0.0,0.0,0.0,0.0,0.0,-1.0,0.0,0.0,0.0,0.0,0.0,0.0,0.0,0.0,0.0,0.0,0.0,0.0,0.0,.,.,.,.,.,.,.,.,.,.,.,.,.,.,.,.,.,.,.,.,.,.,.,.,.,.,.,.,.,.,.,.,.,.,.,.,.,.,.,.,.,.,.,.,.,.,.,.,.,.,.,.,.,.,.,.,,2.0333000000000006
7.416,10.65,8.033325,0.243037,-0.003538,0.435549,0.700905,6.0,359.68375,-0.00552,10000.0,5477.841036,2.0,-0.213065,5.186935,-0.002543,10000.0,5477.841036,1.82558,-0.00291,-0.00174,3911.595947,14.186935,-0.531999,0.001675,-0.051173,-0.31625,711.618652,0.004513,0.004511,0.000147,0.000145,0.0,0.0,0.0,0.0,0.0,0.0,0.0,-1.0,0.0,0.0,0.0,0.0,0.0,0.0,0.0,0.0,0.0,0.0,0.0,0.0,0.0,.,.,.,.,.,.,.,.,.,.,.,.,.,.,.,.,.,.,.,.,.,.,.,.,.,.,.,.,.,.,.,.,.,.,.,.,.,.,.,.,.,.,.,.,.,.,.,.,.,.,.,.,.,.,.,.,,2.0500000000000007
7.434,10.6667,8.066659,0.24236,-0.003556,0.435549,0.700905,6.0,359.681772,-0.005554,10000.0,5463.513403,2.0,-0.213323,5.186677,-0.002543,10000.0,5463.513403,1.830368,-0.002917,-0.001753,3911.63208,14.186677,-0.532002,0.001689,-0.050995,-0.318228,712.203064,0.004505,0.004503,0.000147,0.000144,0.0,0.0,0.0,0.0,0.0,0.0,0.0,-1.0,0.0,0.0,0.0,0.0,0.0,0.0,0.0,0.0,0.0,0.0,0.0,0.0,0.0,.,.,.,.,.,.,.,.,.,.,.,.,.,.,.,.,.,.,.,.,.,.,.,.,.,.,.,.,.,.,.,.,.,.,.,.,.,.,.,.,.,.,.,.,.,.,.,.,.,.,.,.,.,.,.,.,,2.066700000000001
7.449,10.6833,8.066659,0.241715,-0.003568,0.435549,0.0,6.0,359.680103,-0.005583,10000.0,5451.542916,2.0,-0.213541,5.186459,-0.002542,10000.0,5451.542916,1.834387,-0.002924,-0.001763,3911.662598,14.186459,-0.532004,0.001701,-0.050869,-0.319897,712.715088,0.004498,0.004496,0.000146,0.000144,0.0,0.0,0.0,0.0,0.0,0.0,0.0,-1.0,0.0,0.0,0.0,0.0,0.0,0.0,0.0,0.0,0.0,0.0,0.0,0.0,0.0,.,.,.,.,.,.,.,.,.,.,.,.,.,.,.,.,.,.,.,.,.,.,.,.,.,.,.,.,.,.,.,.,.,.,.,.,.,.,.,.,.,.,.,.,.,.,.,.,.,.,.,.,.,.,.,.,,2.0832999999999995
7.467,10.7,8.099992,0.241043,-0.003578,0.435549,0.0,6.0,359.678432,-0.005612,10000.0,5439.658631,2.0,-0.213762,5.186238,-0.002542,10000.0,5439.658631,1.838395,-0.00293,-0.001772,3911.693115,14.186238,-0.532006,0.001712,-0.05077,-0.321568,713.246033,0.004491,0.004489,0.000146,0.000144,0.0,0.0,0.0,0.0,0.0,0.0,0.0,-1.0,0.0,0.0,0.0,0.0,0.0,0.0,0.0,0.0,0.0,0.0,0.0,0.0,0.0,.,.,.,.,.,.,.,.,.,.,.,.,.,.,.,.,.,.,.,.,.,.,.,.,.,.,.,.,.,.,.,.,.,.,.,.,.,.,.,.,.,.,.,.,.,.,.,.,.,.,.,.,.,.,.,.,,2.0999999999999996
7.483,10.7167,8.099992,0.240418,-0.003585,0.435549,0.0,6.0,359.676862,-0.00564,10000.0,5428.59284,2.0,-0.21397,5.18603,-0.002542,10000.0,5428.59284,1.842143,-0.002936,-0.00178,3911.721924,14.18603,-0.532009,0.001721,-0.050704,-0.323138,713.759888,0.004485,0.004482,0.000145,0.000143,0.0,0.0,0.0,0.0,0.0,0.0,0.0,-1.0,0.0,0.0,0.0,0.0,0.0,0.0,0.0,0.0,0.0,0.0,0.0,0.0,0.0,.,.,.,.,.,.,.,.,.,.,.,.,.,.,.,.,.,.,.,.,.,.,.,.,.,.,.,.,.,.,.,.,.,.,.,.,.,.,.,.,.,.,.,.,.,.,.,.,.,.,.,.,.,.,.,.,,2.1167
7.5,10.7333,8.133325,0.239896,-0.00359,0.435549,0.0,6.0,359.6755,-0.005664,10000.0,5419.060428,2.0,-0.21415,5.18585,-0.002542,10000.0,5419.060428,1.845384,-0.002941,-0.001786,3911.746826,14.18585,-0.532011,0.001728,-0.050669,-0.3245,714.216492,0.00448,0.004477,0.000145,0.000143,0.0,0.0,0.0,0.0,0.0,0.0,0.0,-1.0,0.0,0.0,0.0,0.0,0.0,0.0,0.0,0.0,0.0,0.0,0.0,0.0,0.0,.,.,.,.,.,.,.,.,.,.,.,.,.,.,.,.,.,.,.,.,.,.,.,.,.,.,.,.,.,.,.,.,.,.,.,.,.,.,.,.,.,.,.,.,.,.,.,.,.,.,.,.,.,.,.,.,,2.1333
7.516,10.75,8.133325,0.239132,-0.003599,0.435549,0.0,6.0,359.673401,-0.0057,10000.0,5404.497094,2.0,-0.21443,5.18557,-0.002541,10000.0,5404.497094,1.850357,-0.002948,-0.001791,3911.7854,14.18557,-0.532014,0.001736,-0.050654,-0.326599,714.936157,0.004472,0.00447,0.000144,0.000143,0.0,0.0,0.0,0.0,0.0,0.0,0.0,-1.0,0.0,0.0,0.0,0.0,0.0,0.0,0.0,0.0,0.0,0.0,0.0,0.0,0.0,.,.,.,.,.,.,.,.,.,.,.,.,.,.,.,.,.,.,.,.,.,.,.,.,.,.,.,.,.,.,.,.,.,.,.,.,.,.,.,.,.,.,.,.,.,.,.,.,.,.,.,.,.,.,.,.,,2.1500000000000004
7.534,10.7667,8.166659,0.238561,-0.003606,0.435549,0.0,6.0,359.671718,-0.00573,10000.0,5392.932273,2.0,-0.214655,5.185345,-0.002541,10000.0,5392.932273,1.854325,-0.002954,-0.001792,3911.816162,14.185345,-0.532016,0.001741,-0.050675,-0.328282,715.524048,0.004467,0.004464,0.000144,0.000142,0.0,0.0,0.0,0.0,0.0,0.0,0.0,-1.0,0.0,0.0,0.0,0.0,0.0,0.0,0.0,0.0,0.0,0.0,0.0,0.0,0.0,.,.,.,.,.,.,.,.,.,.,.,.,.,.,.,.,.,.,.,.,.,.,.,.,.,.,.,.,.,.,.,.,.,.,.,.,.,.,.,.,.,.,.,.,.,.,.,.,.,.,.,.,.,.,.,.,,2.1667000000000005
7.549,10.7833,8.166659,0.238027,-0.003613,0.435549,0.700905,6.0,359.670031,-0.005759,10000.0,5381.441007,2.0,-0.214882,5.185118,-0.002541,10000.0,5381.441007,1.858285,-0.00296,-0.001792,3911.847168,14.185118,-0.532019,0.001744,-0.050724,-0.329969,716.120239,0.004462,0.004459,0.000144,0.000142,0.0,0.0,0.0,0.0,0.0,0.0,0.0,-1.0,0.0,0.0,0.0,0.0,0.0,0.0,0.0,0.0,0.0,0.0,0.0,0.0,0.0,.,.,.,.,.,.,.,.,.,.,.,.,.,.,.,.,.,.,.,.,.,.,.,.,.,.,.,.,.,.,.,.,.,.,.,.,.,.,.,.,.,.,.,.,.,.,.,.,.,.,.,.,.,.,.,.,,2.183300000000001
7.567,10.8,8.199992,0.237526,-0.00362,0.435549,0.700905,6.0,359.668342,-0.005789,10000.0,5370.021639,2.0,-0.215111,5.184889,-0.002541,10000.0,5370.021639,1.862237,-0.002966,-0.00179,3911.878174,14.184889,-0.532021,0.001746,-0.050797,-0.331658,716.722717,0.004457,0.004454,0.000144,0.000142,0.0,0.0,0.0,0.0,0.0,0.0,0.0,-1.0,0.0,0.0,0.0,0.0,0.0,0.0,0.0,0.0,0.0,0.0,0.0,0.0,0.0,.,.,.,.,.,.,.,.,.,.,.,.,.,.,.,.,.,.,.,.,.,.,.,.,.,.,.,.,.,.,.,.,.,.,.,.,.,.,.,.,.,.,.,.,.,.,.,.,.,.,.,.,.,.,.,.,,2.200000000000001
7.583,10.8167,8.199992,0.237054,-0.003629,0.435549,0.700905,6.0,359.666649,-0.005818,10000.0,5358.672198,2.0,-0.215341,5.184659,-0.00254,10000.0,5358.672198,1.866182,-0.002972,-0.001786,3911.90918,14.184659,-0.532023,0.001747,-0.050893,-0.333351,717.329651,0.004452,0.004449,0.000144,0.000141,0.0,0.0,0.0,0.0,0.0,0.0,0.0,-1.0,0.0,0.0,0.0,0.0,0.0,0.0,0.0,0.0,0.0,0.0,0.0,0.0,0.0,.,.,.,.,.,.,.,.,.,.,.,.,.,.,.,.,.,.,.,.,.,.,.,.,.,.,.,.,.,.,.,.,.,.,.,.,.,.,.,.,.,.,.,.,.,.,.,.,.,.,.,.,.,.,.,.,,2.2167000000000012
7.6,10.8333,8.233325,0.236607,-0.003638,0.435549,0.700905,6.0,359.664953,-0.005848,10000.0,5347.390741,2.0,-0.215572,5.184428,-0.00254,10000.0,5347.390741,1.870119,-0.002977,-0.001781,3911.94043,14.184428,-0.532026,0.001748,-0.051009,-0.335047,717.939697,0.004447,0.004445,0.000143,0.000141,0.0,0.0,0.0,0.0,0.0,0.0,0.0,-1.0,0.0,0.0,0.0,0.0,0.0,0.0,0.0,0.0,0.0,0.0,0.0,0.0,0.0,.,.,.,.,.,.,.,.,.,.,.,.,.,.,.,.,.,.,.,.,.,.,.,.,.,.,.,.,.,.,.,.,.,.,.,.,.,.,.,.,.,.,.,.,.,.,.,.,.,.,.,.,.,.,.,.,,2.2333
7.617,10.85,8.233325,0.236179,-0.003648,0.435549,0.700905,6.0,359.663253,-0.005877,10000.0,5336.176713,2.0,-0.215804,5.184196,-0.00254,10000.0,5336.176713,1.87405,-0.002983,-0.001776,3911.97168,14.184196,-0.532027,0.001748,-0.051141,-0.336747,718.551697,0.004443,0.004441,0.000143,0.000141,0.0,0.0,0.0,0.0,0.0,0.0,0.0,-1.0,0.0,0.0,0.0,0.0,0.0,0.0,0.0,0.0,0.0,0.0,0.0,0.0,0.0,.,.,.,.,.,.,.,.,.,.,.,.,.,.,.,.,.,.,.,.,.,.,.,.,.,.,.,.,.,.,.,.,.,.,.,.,.,.,.,.,.,.,.,.,.,.,.,.,.,.,.,.,.,.,.,.,,2.25
7.634,10.8667,8.266658,0.235765,-0.003658,0.435549,0.700905,6.0,359.661549,-0.005907,10000.0,5325.02855,2.0,-0.216039,5.183961,-0.00254,10000.0,5325.02855,1.877974,-0.002988,-0.00177,3912.00293,14.183961,-0.532029,0.001749,-0.051289,-0.338451,719.164673,0.004439,0.004436,0.000143,0.000141,0.0,0.0,0.0,0.0,0.0,0.0,0.0,-1.0,0.0,0.0,0.0,0.0,0.0,0.0,0.0,0.0,0.0,0.0,0.0,0.0,0.0,.,.,.,.,.,.,.,.,.,.,.,.,.,.,.,.,.,.,.,.,.,.,.,.,.,.,.,.,.,.,.,.,.,.,.,.,.,.,.,.,.,.,.,.,.,.,.,.,.,.,.,.,.,.,.,.,,2.2667
7.649,10.8833,8.266658,0.235353,-0.00367,0.435549,0.700905,6.0,359.659841,-0.005937,10000.0,5313.946058,2.0,-0.216274,5.183726,-0.002539,10000.0,5313.946058,1.881891,-0.002994,-0.001763,3912.03418,14.183726,-0.53203,0.00175,-0.051449,-0.340159,719.778015,0.004434,0.004432,0.000143,0.00014,0.0,0.0,0.0,0.0,0.0,0.0,0.0,-1.0,0.0,0.0,0.0,0.0,0.0,0.0,0.0,0.0,0.0,0.0,0.0,0.0,0.0,.,.,.,.,.,.,.,.,.,.,.,.,.,.,.,.,.,.,.,.,.,.,.,.,.,.,.,.,.,.,.,.,.,.,.,.,.,.,.,.,.,.,.,.,.,.,.,.,.,.,.,.,.,.,.,.,,2.2833000000000006
7.667,10.9,8.299992,0.234934,-0.003682,0.435549,0.700905,6.0,359.65813,-0.005967,10000.0,5302.930384,2.0,-0.216511,5.183489,-0.002539,10000.0,5302.930384,1.8858,-0.002999,-0.001756,3912.065674,14.183489,-0.532031,0.001751,-0.051622,-0.34187,720.391113,0.00443,0.004427,0.000143,0.00014,0.0,0.0,0.0,0.0,0.0,0.0,0.0,-1.0,0.0,0.0,0.0,0.0,0.0,0.0,0.0,0.0,0.0,0.0,0.0,0.0,0.0,.,.,.,.,.,.,.,.,.,.,.,.,.,.,.,.,.,.,.,.,.,.,.,.,.,.,.,.,.,.,.,.,.,.,.,.,.,.,.,.,.,.,.,.,.,.,.,.,.,.,.,.,.,.,.,.,,2.3000000000000007
7.683,10.9167,8.299992,0.234541,-0.003694,0.435549,0.700905,6.0,359.656523,-0.005995,10000.0,5292.66145,2.0,-0.216734,5.183266,-0.002539,10000.0,5292.66145,1.88946,-0.003004,-0.001749,3912.095215,14.183266,-0.532032,0.001753,-0.051793,-0.343477,720.965332,0.004426,0.004423,0.000143,0.00014,0.0,0.0,0.0,0.0,0.0,0.0,0.0,-1.0,0.0,0.0,0.0,0.0,0.0,0.0,0.0,0.0,0.0,0.0,0.0,0.0,0.0,.,.,.,.,.,.,.,.,.,.,.,.,.,.,.,.,.,.,.,.,.,.,.,.,.,.,.,.,.,.,.,.,.,.,.,.,.,.,.,.,.,.,.,.,.,.,.,.,.,.,.,.,.,.,.,.,,2.316700000000001
7.699,10.9333,8.333325,0.234099,-0.003708,0.435549,0.700905,6.0,359.654697,-0.006027,10000.0,5281.092334,2.0,-0.216989,5.183011,-0.002538,10000.0,5281.092334,1.893599,-0.00301,-0.001742,3912.128662,14.183011,-0.532033,0.001756,-0.051996,-0.345303,721.615112,0.004421,0.004418,0.000143,0.00014,0.0,0.0,0.0,0.0,0.0,0.0,0.0,-1.0,0.0,0.0,0.0,0.0,0.0,0.0,0.0,0.0,0.0,0.0,0.0,0.0,0.0,.,.,.,.,.,.,.,.,.,.,.,.,.,.,.,.,.,.,.,.,.,.,.,.,.,.,.,.,.,.,.,.,.,.,.,.,.,.,.,.,.,.,.,.,.,.,.,.,.,.,.,.,.,.,.,.,,2.3332999999999995
7.716,10.95,8.333325,0.233685,-0.003722,0.435549,0.700905,6.0,359.652974,-0.006057,10000.0,5270.26926,2.0,-0.21723,5.18277,-0.002538,10000.0,5270.26926,1.897488,-0.003015,-0.001736,3912.160156,14.18277,-0.532033,0.00176,-0.052196,-0.347025,722.225464,0.004416,0.004414,0.000142,0.000139,0.0,0.0,0.0,0.0,0.0,0.0,0.0,-1.0,0.0,0.0,0.0,0.0,0.0,0.0,0.0,0.0,0.0,0.0,0.0,0.0,0.0,.,.,.,.,.,.,.,.,.,.,.,.,.,.,.,.,.,.,.,.,.,.,.,.,.,.,.,.,.,.,.,.,.,.,.,.,.,.,.,.,.,.,.,.,.,.,.,.,.,.,.,.,.,.,.,.,,2.3499999999999996
7.734,10.9667,8.366658,0.233275,-0.003745,0.435549,0.700905,6.0,359.651249,-0.006087,10000.0,5259.509583,2.0,-0.217472,5.182528,-0.002561,10000.0,5259.509583,1.901371,-0.003021,-0.001732,3912.191895,14.182528,-0.532033,0.001764,-0.052403,-0.348751,722.834473,0.004412,0.00441,0.000142,0.000139,0.0,0.0,0.0,0.0,0.0,0.0,0.0,-1.0,0.0,0.0,0.0,0.0,0.0,0.0,0.0,0.0,0.0,0.0,0.0,0.0,0.0,.,.,.,.,.,.,.,.,.,.,.,.,.,.,.,.,.,.,.,.,.,.,.,.,.,.,.,.,.,.,.,.,.,.,.,.,.,.,.,.,.,.,.,.,.,.,.,.,.,.,.,.,.,.,.,.,,2.3667
7.75,10.9833,8.366658,0.232868,-0.003803,0.435549,0.700905,6.0,359.649519,-0.006117,10000.0,5248.812142,2.0,-0.217717,5.182283,-0.002561,10000.0,5248.812142,1.905246,-0.003028,-0.001728,3912.223633,14.182283,-0.532033,0.001772,-0.052615,-0.350481,723.442078,0.004408,0.004405,0.000142,0.000139,0.0,0.0,0.0,0.0,0.0,0.0,0.0,-1.0,0.0,0.0,0.0,0.0,0.0,0.0,0.0,0.0,0.0,0.0,0.0,0.0,0.0,.,.,.,.,.,.,.,.,.,.,.,.,.,.,.,.,.,.,.,.,.,.,.,.,.,.,.,.,.,.,.,.,.,.,.,.,.,.,.,.,.,.,.,.,.,.,.,.,.,.,.,.,.,.,.,.,,2.3833
7.767,11.0,8.399992,0.232462,-0.003882,0.435549,0.700905,6.0,359.647784,-0.006147,10000.0,5238.176772,2.0,-0.217962,5.182038,-0.002585,10000.0,5238.176772,1.909115,-0.003037,-0.001727,3912.255371,14.182038,-0.532032,0.001782,-0.052831,-0.352216,724.048096,0.004404,0.004401,0.000142,0.000139,0.0,0.0,0.0,0.0,0.0,0.0,0.0,-1.0,0.0,0.0,0.0,0.0,0.0,0.0,0.0,0.0,0.0,0.0,0.0,0.0,0.0,.,.,.,.,.,.,.,.,.,.,.,.,.,.,.,.,.,.,.,.,.,.,.,.,.,.,.,.,.,.,.,.,.,.,.,.,.,.,.,.,.,.,.,.,.,.,.,.,.,.,.,.,.,.,.,.,,2.4000000000000004
7.783,11.0167,8.399992,0.232058,-0.003993,0.435549,0.700905,6.0,359.646044,-0.006178,10000.0,5227.602658,2.0,-0.218209,5.181791,-0.002585,10000.0,5227.602658,1.912977,-0.003047,-0.001727,3912.287109,14.181791,-0.532032,0.001798,-0.05305,-0.353956,724.652588,0.004399,0.004397,0.000142,0.000138,0.0,0.0,0.0,0.0,0.0,0.0,0.0,-1.0,0.0,0.0,0.0,0.0,0.0,0.0,0.0,0.0,0.0,0.0,0.0,0.0,0.0,.,.,.,.,.,.,.,.,.,.,.,.,.,.,.,.,.,.,.,.,.,.,.,.,.,.,.,.,.,.,.,.,.,.,.,.,.,.,.,.,.,.,.,.,.,.,.,.,.,.,.,.,.,.,.,.,,2.4167000000000005
7.8,11.0333,8.433325,0.231656,-0.004112,0.435549,0.700905,6.0,359.644298,-0.006208,10000.0,5217.089319,2.0,-0.218458,5.181542,-0.002585,10000.0,5217.089319,1.916833,-0.003059,-0.001729,3912.319092,14.181542,-0.532031,0.00182,-0.053271,-0.355702,725.255493,0.004395,0.004392,0.000142,0.000138,0.0,0.0,0.0,0.0,0.0,0.0,0.0,-1.0,0.0,0.0,0.0,0.0,0.0,0.0,0.0,0.0,0.0,0.0,0.0,0.0,0.0,.,.,.,.,.,.,.,.,.,.,.,.,.,.,.,.,.,.,.,.,.,.,.,.,.,.,.,.,.,.,.,.,.,.,.,.,.,.,.,.,.,.,.,.,.,.,.,.,.,.,.,.,.,.,.,.,,2.433300000000001
7.816,11.05,8.433325,0.23148,-0.004161,0.435549,0.700905,6.0,359.643532,-0.006222,10000.0,5212.508991,2.0,-0.218566,5.181434,-0.002562,10000.0,5212.508991,1.918517,-0.003065,-0.00173,3912.333008,14.181434,-0.532031,0.001832,-0.053369,-0.356468,725.518738,0.004393,0.00439,0.000142,0.000138,0.0,0.0,0.0,0.0,0.0,0.0,0.0,-1.0,0.0,0.0,0.0,0.0,0.0,0.0,0.0,0.0,0.0,0.0,0.0,0.0,0.0,.,.,.,.,.,.,.,.,.,.,.,.,.,.,.,.,.,.,.,.,.,.,.,.,.,.,.,.,.,.,.,.,.,.,.,.,.,.,.,.,.,.,.,.,.,.,.,.,.,.,.,.,.,.,.,.,,2.450000000000001
7.834,11.0667,8.466658,0.230855,-0.004249,0.435549,0.700905,6.0,359.640786,-0.006269,10000.0,5196.243391,2.0,-0.218959,5.181041,-0.002562,10000.0,5196.243391,1.924524,-0.003084,-0.001739,3912.383057,14.181041,-0.532029,0.001883,-0.053716,-0.359214,726.45636,0.004387,0.004384,0.000141,0.000138,0.0,0.0,0.0,0.0,0.0,0.0,0.0,-1.0,0.0,0.0,0.0,0.0,0.0,0.0,0.0,0.0,0.0,0.0,0.0,0.0,0.0,.,.,.,.,.,.,.,.,.,.,.,.,.,.,.,.,.,.,.,.,.,.,.,.,.,.,.,.,.,.,.,.,.,.,.,.,.,.,.,.,.,.,.,.,.,.,.,.,.,.,.,.,.,.,.,.,,2.4667000000000012
7.85,11.0833,8.466658,0.230457,-0.004247,0.435549,0.0,6.0,359.639019,-0.0063,10000.0,5185.909222,2.0,-0.219212,5.180788,-0.002561,10000.0,5185.909222,1.928359,-0.003095,-0.001747,3912.415283,14.180788,-0.532028,0.001919,-0.053936,-0.360981,727.054382,0.004382,0.00438,0.000141,0.000137,0.0,0.0,0.0,0.0,0.0,0.0,0.0,-1.0,0.0,0.0,0.0,0.0,0.0,0.0,0.0,0.0,0.0,0.0,0.0,0.0,0.0,.,.,.,.,.,.,.,.,.,.,.,.,.,.,.,.,.,.,.,.,.,.,.,.,.,.,.,.,.,.,.,.,.,.,.,.,.,.,.,.,.,.,.,.,.,.,.,.,.,.,.,.,.,.,.,.,,2.4833
