DatTime SimTime MediaTime LonAccel LatAccel Throttle Brake Gear Heading HeadingError HeadwayDistance HeadwayTime Lane LaneOffset RoadOffset Steer TailwayDistance TailwayTime Velocity LatVelocity VertVelocity XPos YPos ZPos Roll Pitch Yaw EngineRPM SlipFR SlipFL SlipRR SlipRL User1 User2 User3 User4 User5 User6 User7 User8 User9 User10 User11 User12 User13 User14 User15 User16 User17 User18 User19 User20 User21 GazeObject FRAME_NUM EXPERIMENT_TIME GMT_S GMT_MS APPROX_DELAY GAZE_DIR_QUAL_R EYE_POS_R_X EYE_POS_R_Y EYE_POS_R_Z GAZE_DIR_QUAL_L EYE_POS_L_X EYE_POS_L_Y EYE_POS_L_Z GAZE_DIR_QUAL GAZE_HEADING GAZE_PITCH GAZE_ORIGIN_X GAZE_ORIGIN_Y GAZE_ORIGIN_Z GAZE_DIRECTION_X GAZE_DIRECTION_Y GAZE_DIRECTION_Z GAZE_DIRECTION_FILTERED_X GAZE_DIRECTION_FILTERED_Y GAZE_DIRECTION_FILTERED_Z LEFT_GAZE_DIRECTION_X LEFT_GAZE_DIRECTION_Y LEFT_GAZE_DIRECTION_Z LEFT_GAZE_DIRECTION_FILTERED_X LEFT_GAZE_DIRECTION_FILTERED_Y LEFT_GAZE_DIRECTION_FILTERED_Z RIGHT_GAZE_DIRECTION_X RIGHT_GAZE_DIRECTION_Y RIGHT_GAZE_DIRECTION_Z RIGHT_GAZE_DIRECTION_FILTERED_X RIGHT_GAZE_DIRECTION_FILTERED_Y RIGHT_GAZE_DIRECTION_FILTERED_Z GAZE_ORIGIN_R_X GAZE_ORIGIN_R_Y GAZE_ORIGIN_R_Z GAZE_ORIGIN_L_X GAZE_ORIGIN_L_Y GAZE_ORIGIN_L_Z GAZE_OBJ_NAME FILTERED_GAZE_OBJ_NAME WORLD_INTERSECTION_X WORLD_INTERSECTION_Y WORLD_INTERSECTION_Z INTERSECTION_SCREEN_X INTERSECTION_SCREEN_Y FILTERED_WORLD_INTERSECTION_X FILTERED_WORLD_INTERSECTION_Y FILTERED_WORLD_INTERSECTION_Z FILTERED_INTERSECTION_SCREEN_X FILTERED_INTERSECTION_SCREEN_Y 
0.016 14.0167 0.133333 0.007829 -0.000007 0.435549 600.700928 0.000000 359.999989 -0.000000 10000.000000 16884900.110018 2.000000 -0.188001 5.211999 0.007119 10000.000000 16884900.110018 0.000595 -0.000000 0.001030 3905.930176 14.211999 -0.532349 -0.000061 -0.143103 -0.000011 560.096863 0.000000 0.000000 0.000000 0.000000 0.000000 0.000000 0.000000 0.000000 0.000000 0.000000 0.000000 -1.000000 0.000000 0.000000 0.000000 0.000000 0.000000 0.000000 0.000000 0.000000 0.000000 0.000000 0.000000 0.000000 0.000000 . . . . . . . . . . . . . . . . . . . . . . . . . . . . . . . . . . . . . . . . . . . . . . . . . . . . . . . . 
0.034 14.0333 0.133333 0.002563 -0.000007 0.435549 600.700928 0.000000 359.999989 -0.000000 10000.000000 17620846.732236 2.000000 -0.188001 5.211999 0.007119 10000.000000 17620846.732236 0.000570 -0.000000 0.001187 3905.930176 14.211999 -0.532330 -0.000064 -0.144089 -0.000011 560.097351 0.000000 0.000000 0.000000 0.000000 0.000000 0.000000 0.000000 0.000000 0.000000 0.000000 0.000000 -1.000000 0.000000 0.000000 0.000000 0.000000 0.000000 0.000000 0.000000 0.000000 0.000000 0.000000 0.000000 0.000000 0.000000 . . . . . . . . . . . . . . . . . . . . . . . . . . . . . . . . . . . . . . . . . . . . . . . . . . . . . . . . 
0.05 14.05 0.166666 -0.001892 -0.000006 0.215815 600.000000 0.000000 359.999989 -0.000000 10000.000000 20886916.768529 2.000000 -0.188001 5.211999 0.007119 10000.000000 20886916.768529 0.000482 -0.000000 0.001318 3905.930176 14.211999 -0.532309 -0.000065 -0.145184 -0.000011 558.929688 0.000000 0.000000 0.000000 0.000000 0.000000 0.000000 0.000000 0.000000 0.000000 0.000000 0.000000 -1.000000 0.000000 0.000000 0.000000 0.000000 0.000000 0.000000 0.000000 0.000000 0.000000 0.000000 0.000000 0.000000 0.000000 . . . . . . . . . . . . . . . . . . . . . . . . . . . . . . . . . . . . . . . . . . . . . . . . . . . . . . . . 
0.066 14.0667 0.166666 -0.005263 -0.000003 0.215815 600.000000 0.000000 359.999989 -0.000000 10000.000000 28430674.687554 2.000000 -0.188001 5.211999 0.007119 10000.000000 28430674.687554 0.000355 -0.000000 0.001430 3905.930176 14.211999 -0.532286 -0.000065 -0.146421 -0.000011 555.270813 0.000000 0.000000 0.000000 0.000000 0.000000 0.000000 0.000000 0.000000 0.000000 0.000000 0.000000 -1.000000 0.000000 0.000000 0.000000 0.000000 0.000000 0.000000 0.000000 0.000000 0.000000 0.000000 0.000000 0.000000 0.000000 . . . . . . . . . . . . . . . . . . . . . . . . . . . . . . . . . . . . . . . . . . . . . . . . . . . . . . . . 
0.083 14.0833 0.200000 -0.007224 0.000001 0.215815 600.000000 0.000000 359.999989 -0.000000 10000.000000 47003517.791398 2.000000 -0.188001 5.211999 0.007119 10000.000000 47003517.791398 0.000217 -0.000000 0.001521 3905.930176 14.211999 -0.532261 -0.000063 -0.147775 -0.000011 551.848083 0.000000 0.000000 0.000000 0.000000 0.000000 0.000000 0.000000 0.000000 0.000000 0.000000 0.000000 -1.000000 0.000000 0.000000 0.000000 0.000000 0.000000 0.000000 0.000000 0.000000 0.000000 0.000000 0.000000 0.000000 0.000000 . . . . . . . . . . . . . . . . . . . . . . . . . . . . . . . . . . . . . . . . . . . . . . . . . . . . . . . . 
0.1 14.1 0.200000 -0.007721 0.000005 0.215815 600.000000 0.000000 359.999988 -0.000000 10000.000000 117021438.971075 2.000000 -0.188001 5.211999 0.007119 10000.000000 117021438.971075 0.000090 -0.000000 0.001587 3905.930176 14.211999 -0.532235 -0.000059 -0.149210 -0.000012 548.745483 0.000000 0.000000 0.000000 0.000000 0.000000 0.000000 0.000000 0.000000 0.000000 0.000000 0.000000 -1.000000 0.000000 0.000000 0.000000 0.000000 0.000000 0.000000 0.000000 0.000000 0.000000 0.000000 0.000000 0.000000 0.000000 . . . . . . . . . . . . . . . . . . . . . . . . . . . . . . . . . . . . . . . . . . . . . . . . . . . . . . . . 
0.116 14.1167 0.233333 -0.006933 0.000009 0.215815 600.000000 0.000000 359.999988 -0.000000 10000.000000 10000.000000 2.000000 -0.188001 5.211999 0.007119 10000.000000 10000.000000 -0.000008 0.000000 0.001626 3905.930176 14.211999 -0.532209 -0.000055 -0.150689 -0.000012 545.992859 0.000000 0.000000 0.000000 0.000000 0.000000 0.000000 0.000000 0.000000 0.000000 0.000000 0.000000 -1.000000 0.000000 0.000000 0.000000 0.000000 0.000000 0.000000 0.000000 0.000000 0.000000 0.000000 0.000000 0.000000 0.000000 . . . . . . . . . . . . . . . . . . . . . . . . . . . . . . . . . . . . . . . . . . . . . . . . . . . . . . . . 
0.133 14.1333 0.233333 -0.005335 0.000011 0.215815 600.000000 0.000000 359.999987 -0.000000 10000.000000 10000.000000 2.000000 -0.188001 5.211999 0.007119 10000.000000 10000.000000 -0.000064 0.000000 0.001635 3905.930176 14.211999 -0.532183 -0.000051 -0.152080 -0.000013 543.728271 0.000000 0.000000 0.000000 0.000000 0.000000 0.000000 0.000000 0.000000 0.000000 0.000000 0.000000 -1.000000 0.000000 0.000000 0.000000 0.000000 0.000000 0.000000 0.000000 0.000000 0.000000 0.000000 0.000000 0.000000 0.000000 . . . . . . . . . . . . . . . . . . . . . . . . . . . . . . . . . . . . . . . . . . . . . . . . . . . . . . . . 
0.15 14.15 0.266666 -0.002981 0.000012 0.215815 600.000000 0.000000 359.999987 -0.000000 10000.000000 10000.000000 2.000000 -0.188001 5.211999 0.007119 10000.000000 10000.000000 -0.000084 0.000000 0.001612 3905.930176 14.211999 -0.532154 -0.000046 -0.153623 -0.000013 541.509888 0.000000 0.000000 0.000000 0.000000 0.000000 0.000000 0.000000 0.000000 0.000000 0.000000 0.000000 -1.000000 0.000000 0.000000 0.000000 0.000000 0.000000 0.000000 0.000000 0.000000 0.000000 0.000000 0.000000 0.000000 0.000000 . . . . . . . . . . . . . . . . . . . . . . . . . . . . . . . . . . . . . . . . . . . . . . . . . . . . . . . . 
0.166 14.1667 0.266666 -0.000697 0.000011 0.215815 600.000000 0.000000 359.999987 -0.000000 10000.000000 10000.000000 2.000000 -0.188001 5.211999 0.007143 10000.000000 10000.000000 -0.000064 0.000001 0.001557 3905.930176 14.211999 -0.532128 -0.000043 -0.155007 -0.000013 539.729553 0.000000 0.000000 0.000000 0.000000 0.000000 0.000000 0.000000 0.000000 0.000000 0.000000 0.000000 -1.000000 0.000000 0.000000 0.000000 0.000000 0.000000 0.000000 0.000000 0.000000 0.000000 0.000000 0.000000 0.000000 0.000000 . . . . . . . . . . . . . . . . . . . . . . . . . . . . . . . . . . . . . . . . . . . . . . . . . . . . . . . . 
0.183 14.1833 0.300000 0.001265 0.000008 0.215815 600.000000 0.000000 359.999987 -0.000000 10000.000000 10000.000000 2.000000 -0.188001 5.211999 0.007143 10000.000000 10000.000000 -0.000019 0.000001 0.001471 3905.930176 14.211999 -0.532103 -0.000039 -0.156299 -0.000013 538.213623 0.000000 0.000000 0.000000 0.000000 0.000000 0.000000 0.000000 0.000000 0.000000 0.000000 0.000000 -1.000000 0.000000 0.000000 0.000000 0.000000 0.000000 0.000000 0.000000 0.000000 0.000000 0.000000 0.000000 0.000000 0.000000 . . . . . . . . . . . . . . . . . . . . . . . . . . . . . . . . . . . . . . . . . . . . . . . . . . . . . . . . 
0.199 14.2 0.300000 0.002634 0.000004 0.215815 600.000000 0.000000 359.999987 -0.000000 10000.000000 276047243.065626 2.000000 -0.188001 5.211999 0.007144 10000.000000 276047243.065626 0.000040 0.000001 0.001354 3905.930176 14.211999 -0.532079 -0.000037 -0.157476 -0.000013 536.929138 0.000000 0.000000 0.000000 0.000000 0.000000 0.000000 0.000000 0.000000 0.000000 0.000000 0.000000 -1.000000 0.000000 0.000000 0.000000 0.000000 0.000000 0.000000 0.000000 0.000000 0.000000 0.000000 0.000000 0.000000 0.000000 . . . . . . . . . . . . . . . . . . . . . . . . . . . . . . . . . . . . . . . . . . . . . . . . . . . . . . . . 
0.217 14.2167 0.333333 0.003278 -0.000000 0.215815 600.000000 0.000000 359.999987 -0.000000 10000.000000 104463089.887282 2.000000 -0.188001 5.211999 0.007146 10000.000000 104463089.887282 0.000099 0.000001 0.001211 3905.930176 14.211999 -0.532058 -0.000035 -0.158527 -0.000013 535.844666 0.000000 0.000000 0.000000 0.000000 0.000000 0.000000 0.000000 0.000000 0.000000 0.000000 0.000000 -1.000000 0.000000 0.000000 0.000000 0.000000 0.000000 0.000000 0.000000 0.000000 0.000000 0.000000 0.000000 0.000000 0.000000 . . . . . . . . . . . . . . . . . . . . . . . . . . . . . . . . . . . . . . . . . . . . . . . . . . . . . . . . 
0.234 14.2333 0.333333 0.003200 -0.000005 0.215815 600.000000 0.000000 359.999988 -0.000000 10000.000000 69279979.482001 2.000000 -0.188001 5.211999 0.007147 10000.000000 69279979.482001 0.000147 0.000001 0.001044 3905.930176 14.211999 -0.532039 -0.000034 -0.159441 -0.000012 534.931702 0.000000 0.000000 0.000000 0.000000 0.000000 0.000000 0.000000 0.000000 0.000000 0.000000 0.000000 -1.000000 0.000000 0.000000 0.000000 0.000000 0.000000 0.000000 0.000000 0.000000 0.000000 0.000000 0.000000 0.000000 0.000000 . . . . . . . . . . . . . . . . . . . . . . . . . . . . . . . . . . . . . . . . . . . . . . . . . . . . . . . . 
0.249 14.25 0.366666 0.002515 -0.000008 0.435549 626.984863 0.000000 359.999988 -0.000000 10000.000000 57427184.655125 2.000000 -0.188001 5.211999 0.007147 10000.000000 57427184.655125 0.000177 0.000000 0.000859 3905.930176 14.211999 -0.532023 -0.000034 -0.160217 -0.000012 535.332886 0.000000 0.000000 0.000000 0.000000 0.000000 0.000000 0.000000 0.000000 0.000000 0.000000 0.000000 -1.000000 0.000000 0.000000 0.000000 0.000000 0.000000 0.000000 0.000000 0.000000 0.000000 0.000000 0.000000 0.000000 0.000000 . . . . . . . . . . . . . . . . . . . . . . . . . . . . . . . . . . . . . . . . . . . . . . . . . . . . . . . . 
0.266 14.2667 0.366666 0.001416 -0.000011 0.435549 626.984863 0.000000 359.999988 -0.000000 10000.000000 55179019.813370 2.000000 -0.188001 5.211999 0.007148 10000.000000 55179019.813370 0.000183 0.000000 0.000659 3905.930176 14.211999 -0.532010 -0.000033 -0.160855 -0.000012 538.352295 0.000000 0.000000 0.000000 0.000000 0.000000 0.000000 0.000000 0.000000 0.000000 0.000000 0.000000 -1.000000 0.000000 0.000000 0.000000 0.000000 0.000000 0.000000 0.000000 0.000000 0.000000 0.000000 0.000000 0.000000 0.000000 . . . . . . . . . . . . . . . . . . . . . . . . . . . . . . . . . . . . . . . . . . . . . . . . . . . . . . . . 
0.286 14.2833 0.366666 0.000377 -0.000012 0.435549 626.984863 0.000000 359.999988 -0.000000 10000.000000 58724336.309110 2.000000 -0.188001 5.211999 0.007148 10000.000000 58724336.309110 0.000172 -0.000000 0.000490 3905.930176 14.211999 -0.532002 -0.000034 -0.161272 -0.000012 540.720398 0.000000 0.000000 0.000000 0.000000 0.000000 0.000000 0.000000 0.000000 0.000000 0.000000 0.000000 -1.000000 0.000000 0.000000 0.000000 0.000000 0.000000 0.000000 0.000000 0.000000 0.000000 0.000000 0.000000 0.000000 0.000000 . . . . . . . . . . . . . . . . . . . . . . . . . . . . . . . . . . . . . . . . . . . . . . . . . . . . . . . . 
0.299 14.3 0.400000 -0.001110 -0.000011 0.435549 626.984863 0.000000 359.999988 -0.000000 10000.000000 76059794.539591 2.000000 -0.188001 5.211999 0.007148 10000.000000 76059794.539591 0.000132 -0.000000 0.000239 3905.930176 14.211999 -0.531995 -0.000034 -0.161722 -0.000012 543.921814 0.000000 0.000000 0.000000 0.000000 0.000000 0.000000 0.000000 0.000000 0.000000 0.000000 0.000000 -1.000000 0.000000 0.000000 0.000000 0.000000 0.000000 0.000000 0.000000 0.000000 0.000000 0.000000 0.000000 0.000000 0.000000 . . . . . . . . . . . . . . . . . . . . . . . . . . . . . . . . . . . . . . . . . . . . . . . . . . . . . . . . 
0.317 14.3167 0.433333 -0.002130 -0.000009 0.435549 626.984863 0.000000 359.999988 -0.000000 10000.000000 118759076.983324 2.000000 -0.188001 5.211999 0.007148 10000.000000 118759076.983324 0.000084 -0.000000 0.000028 3905.930176 14.211999 -0.531993 -0.000034 -0.161959 -0.000012 546.325806 0.000000 0.000000 0.000000 0.000000 0.000000 0.000000 0.000000 0.000000 0.000000 0.000000 0.000000 -1.000000 0.000000 0.000000 0.000000 0.000000 0.000000 0.000000 0.000000 0.000000 0.000000 0.000000 0.000000 0.000000 0.000000 . . . . . . . . . . . . . . . . . . . . . . . . . . . . . . . . . . . . . . . . . . . . . . . . . . . . . . . . 
0.333 14.3333 0.433333 -0.002803 -0.000007 0.435549 626.984863 0.000000 359.999988 -0.000000 10000.000000 322480286.170584 2.000000 -0.188001 5.211999 0.007148 10000.000000 322480286.170584 0.000031 -0.000000 -0.000178 3905.930176 14.211999 -0.531994 -0.000035 -0.162068 -0.000012 548.447510 0.000000 0.000000 0.000000 0.000000 0.000000 0.000000 0.000000 0.000000 0.000000 0.000000 0.000000 -1.000000 0.000000 0.000000 0.000000 0.000000 0.000000 0.000000 0.000000 0.000000 0.000000 0.000000 0.000000 0.000000 0.000000 . . . . . . . . . . . . . . . . . . . . . . . . . . . . . . . . . . . . . . . . . . . . . . . . . . . . . . . . 
0.349 14.35 0.466666 -0.003092 -0.000003 0.435549 657.824646 0.000000 359.999988 -0.000000 10000.000000 10000.000000 2.000000 -0.188001 5.211999 0.007148 10000.000000 10000.000000 -0.000023 -0.000000 -0.000365 3905.930176 14.211999 -0.531999 -0.000035 -0.162055 -0.000012 550.294128 0.000000 0.000000 0.000000 0.000000 0.000000 0.000000 0.000000 0.000000 0.000000 0.000000 0.000000 -1.000000 0.000000 0.000000 0.000000 0.000000 0.000000 0.000000 0.000000 0.000000 0.000000 0.000000 0.000000 0.000000 0.000000 . . . . . . . . . . . . . . . . . . . . . . . . . . . . . . . . . . . . . . . . . . . . . . . . . . . . . . . . 
0.366 14.3667 0.466666 -0.003003 -0.000000 0.435549 657.824646 0.000000 359.999988 -0.000000 10000.000000 10000.000000 2.000000 -0.188001 5.211999 0.007148 10000.000000 10000.000000 -0.000069 -0.000000 -0.000532 3905.930176 14.211999 -0.532006 -0.000036 -0.161930 -0.000012 551.884033 0.000000 0.000000 0.000000 0.000000 0.000000 0.000000 0.000000 0.000000 0.000000 0.000000 0.000000 -1.000000 0.000000 0.000000 0.000000 0.000000 0.000000 0.000000 0.000000 0.000000 0.000000 0.000000 0.000000 0.000000 0.000000 . . . . . . . . . . . . . . . . . . . . . . . . . . . . . . . . . . . . . . . . . . . . . . . . . . . . . . . . 
0.383 14.3833 0.499999 -0.002585 0.000003 0.435549 657.824646 0.000000 359.999988 -0.000000 10000.000000 10000.000000 2.000000 -0.188001 5.211999 0.007148 10000.000000 10000.000000 -0.000105 -0.000000 -0.000673 3905.930176 14.211999 -0.532016 -0.000036 -0.161701 -0.000012 553.241333 0.000000 0.000000 0.000000 0.000000 0.000000 0.000000 0.000000 0.000000 0.000000 0.000000 0.000000 -1.000000 0.000000 0.000000 0.000000 0.000000 0.000000 0.000000 0.000000 0.000000 0.000000 0.000000 0.000000 0.000000 0.000000 . . . . . . . . . . . . . . . . . . . . . . . . . . . . . . . . . . . . . . . . . . . . . . . . . . . . . . . . 
0.399 14.4 0.499999 -0.001936 0.000005 0.435549 657.824646 0.000000 359.999987 -0.000000 10000.000000 10000.000000 2.000000 -0.188001 5.211999 0.007125 10000.000000 10000.000000 -0.000127 -0.000000 -0.000790 3905.930176 14.211999 -0.532028 -0.000036 -0.161379 -0.000013 554.392029 0.000000 0.000000 0.000000 0.000000 0.000000 0.000000 0.000000 0.000000 0.000000 0.000000 0.000000 -1.000000 0.000000 0.000000 0.000000 0.000000 0.000000 0.000000 0.000000 0.000000 0.000000 0.000000 0.000000 0.000000 0.000000 . . . . . . . . . . . . . . . . . . . . . . . . . . . . . . . . . . . . . . . . . . . . . . . . . . . . . . . . 
0.417 14.4167 0.533333 -0.001368 0.000006 0.435549 657.824646 0.000000 359.999987 -0.000000 10000.000000 10000.000000 2.000000 -0.188001 5.211999 0.007125 10000.000000 10000.000000 -0.000135 -0.000000 -0.000860 3905.930176 14.211999 -0.532039 -0.000037 -0.161084 -0.000013 555.135193 0.000000 0.000000 0.000000 0.000000 0.000000 0.000000 0.000000 0.000000 0.000000 0.000000 0.000000 -1.000000 0.000000 0.000000 0.000000 0.000000 0.000000 0.000000 0.000000 0.000000 0.000000 0.000000 0.000000 0.000000 0.000000 . . . . . . . . . . . . . . . . . . . . . . . . . . . . . . . . . . . . . . . . . . . . . . . . . . . . . . . . 
0.433 14.4333 0.533333 -0.000412 0.000006 0.435549 657.824646 0.000000 359.999987 -0.000000 10000.000000 10000.000000 2.000000 -0.188001 5.211999 0.007125 10000.000000 10000.000000 -0.000132 -0.000000 -0.000945 3905.930176 14.211999 -0.532058 -0.000038 -0.160504 -0.000013 556.176147 0.000000 0.000000 0.000000 0.000000 0.000000 0.000000 0.000000 0.000000 0.000000 0.000000 0.000000 -1.000000 0.000000 0.000000 0.000000 0.000000 0.000000 0.000000 0.000000 0.000000 0.000000 0.000000 0.000000 0.000000 0.000000 . . . . . . . . . . . . . . . . . . . . . . . . . . . . . . . . . . . . . . . . . . . . . . . . . . . . . . . . 
0.449 14.45 0.566666 0.000058 0.000006 0.435549 678.501404 0.000000 359.999987 -0.000000 10000.000000 10000.000000 2.000000 -0.188001 5.211999 0.007125 10000.000000 10000.000000 -0.000125 0.000000 -0.000976 3905.930176 14.211999 -0.532069 -0.000038 -0.160146 -0.000013 556.657043 0.000000 0.000000 0.000000 0.000000 0.000000 0.000000 0.000000 0.000000 0.000000 0.000000 0.000000 -1.000000 0.000000 0.000000 0.000000 0.000000 0.000000 0.000000 0.000000 0.000000 0.000000 0.000000 0.000000 0.000000 0.000000 . . . . . . . . . . . . . . . . . . . . . . . . . . . . . . . . . . . . . . . . . . . . . . . . . . . . . . . . 
0.467 14.9667 1.066666 0.000019 0.000000 0.435549 739.129700 0.000000 359.999988 -0.000000 10000.000000 384012195.139976 2.000000 -0.188001 5.211999 0.007071 10000.000000 384012195.139976 0.000027 0.000000 0.000300 3905.930176 14.211999 -0.532176 -0.000044 -0.154945 -0.000012 560.093018 0.000000 0.000000 0.000000 0.000000 0.000000 0.000000 0.000000 0.000000 0.000000 0.000000 0.000000 -1.000000 0.000000 0.000000 0.000000 0.000000 0.000000 0.000000 0.000000 0.000000 0.000000 0.000000 0.000000 0.000000 0.000000 . . . . . . . . . . . . . . . . . . . . . . . . . . . . . . . . . . . . . . . . . . . . . . . . . . . . . . . . 
0.484 14.9833 1.099999 0.000001 0.000000 0.435549 739.129700 0.000000 359.999988 -0.000000 10000.000000 387684146.356393 2.000000 -0.188001 5.211999 0.007071 10000.000000 387684146.356393 0.000027 0.000000 0.000278 3905.930176 14.211999 -0.532171 -0.000044 -0.155174 -0.000012 560.094177 0.000000 0.000000 0.000000 0.000000 0.000000 0.000000 0.000000 0.000000 0.000000 0.000000 0.000000 -1.000000 0.000000 0.000000 0.000000 0.000000 0.000000 0.000000 0.000000 0.000000 0.000000 0.000000 0.000000 0.000000 0.000000 . . . . . . . . . . . . . . . . . . . . . . . . . . . . . . . . . . . . . . . . . . . . . . . . . . . . . . . . 
0.499 15 1.099999 -0.000029 0.000000 0.435549 739.129700 0.000000 359.999988 -0.000000 10000.000000 401603485.047140 2.000000 -0.188001 5.211999 0.007071 10000.000000 401603485.047140 0.000026 0.000000 0.000252 3905.930176 14.211999 -0.532167 -0.000044 -0.155389 -0.000012 560.095154 0.000000 0.000000 0.000000 0.000000 0.000000 0.000000 0.000000 0.000000 0.000000 0.000000 0.000000 -1.000000 0.000000 0.000000 0.000000 0.000000 0.000000 0.000000 0.000000 0.000000 0.000000 0.000000 0.000000 0.000000 0.000000 . . . . . . . . . . . . . . . . . . . . . . . . . . . . . . . . . . . . . . . . . . . . . . . . . . . . . . . . 
0.517 15.0167 1.133332 -0.000063 0.000000 0.435549 739.129700 0.000000 359.999988 -0.000000 10000.000000 425327062.327415 2.000000 -0.188001 5.211999 0.007071 10000.000000 425327062.327415 0.000024 0.000000 0.000227 3905.930176 14.211999 -0.532163 -0.000044 -0.155563 -0.000012 560.095886 0.000000 0.000000 0.000000 0.000000 0.000000 0.000000 0.000000 0.000000 0.000000 0.000000 0.000000 -1.000000 0.000000 0.000000 0.000000 0.000000 0.000000 0.000000 0.000000 0.000000 0.000000 0.000000 0.000000 0.000000 0.000000 . . . . . . . . . . . . . . . . . . . . . . . . . . . . . . . . . . . . . . . . . . . . . . . . . . . . . . . . 
0.533 15.0333 1.133332 -0.000111 -0.000000 0.435549 739.129700 0.000000 359.999988 -0.000000 10000.000000 478750715.408417 2.000000 -0.188001 5.211999 0.007071 10000.000000 478750715.408417 0.000021 0.000000 0.000190 3905.930176 14.211999 -0.532159 -0.000044 -0.155764 -0.000012 560.096619 0.000000 0.000000 0.000000 0.000000 0.000000 0.000000 0.000000 0.000000 0.000000 0.000000 0.000000 -1.000000 0.000000 0.000000 0.000000 0.000000 0.000000 0.000000 0.000000 0.000000 0.000000 0.000000 0.000000 0.000000 0.000000 . . . . . . . . . . . . . . . . . . . . . . . . . . . . . . . . . . . . . . . . . . . . . . . . . . . . . . . . 
0.549 15.05 1.166665 -0.000154 -0.000000 0.215815 744.736938 0.000000 359.999988 -0.000000 10000.000000 560260073.989216 2.000000 -0.188001 5.211999 0.007071 10000.000000 560260073.989216 0.000018 0.000000 0.000154 3905.930176 14.211999 -0.532156 -0.000044 -0.155920 -0.000012 558.929077 0.000000 0.000000 0.000000 0.000000 0.000000 0.000000 0.000000 0.000000 0.000000 0.000000 0.000000 -1.000000 0.000000 0.000000 0.000000 0.000000 0.000000 0.000000 0.000000 0.000000 0.000000 0.000000 0.000000 0.000000 0.000000 . . . . . . . . . . . . . . . . . . . . . . . . . . . . . . . . . . . . . . . . . . . . . . . . . . . . . . . . 
0.566 15.0667 1.166665 -0.000191 -0.000000 0.215815 744.736938 0.000000 359.999988 -0.000000 10000.000000 699407070.505149 2.000000 -0.188001 5.211999 0.007071 10000.000000 699407070.505149 0.000015 0.000000 0.000116 3905.930176 14.211999 -0.532154 -0.000044 -0.156052 -0.000012 555.270325 0.000000 0.000000 0.000000 0.000000 0.000000 0.000000 0.000000 0.000000 0.000000 0.000000 0.000000 -1.000000 0.000000 0.000000 0.000000 0.000000 0.000000 0.000000 0.000000 0.000000 0.000000 0.000000 0.000000 0.000000 0.000000 . . . . . . . . . . . . . . . . . . . . . . . . . . . . . . . . . . . . . . . . . . . . . . . . . . . . . . . . 
0.583 15.0833 1.199999 -0.000219 -0.000000 0.215815 744.736938 0.000000 359.999988 -0.000000 10000.000000 959259537.792725 2.000000 -0.188001 5.211999 0.007071 10000.000000 959259537.792725 0.000011 0.000000 0.000077 3905.930176 14.211999 -0.532153 -0.000044 -0.156158 -0.000012 551.847717 0.000000 0.000000 0.000000 0.000000 0.000000 0.000000 0.000000 0.000000 0.000000 0.000000 0.000000 -1.000000 0.000000 0.000000 0.000000 0.000000 0.000000 0.000000 0.000000 0.000000 0.000000 0.000000 0.000000 0.000000 0.000000 . . . . . . . . . . . . . . . . . . . . . . . . . . . . . . . . . . . . . . . . . . . . . . . . . . . . . . . . 
0.6 15.1 1.199999 -0.000236 -0.000000 0.215815 744.736938 0.000000 359.999988 -0.000000 10000.000000 1554485633.673465 2.000000 -0.188001 5.211999 0.007070 10000.000000 1554485633.673465 0.000007 0.000000 0.000038 3905.930176 14.211999 -0.532152 -0.000044 -0.156239 -0.000012 548.745178 0.000000 0.000000 0.000000 0.000000 0.000000 0.000000 0.000000 0.000000 0.000000 0.000000 0.000000 -1.000000 0.000000 0.000000 0.000000 0.000000 0.000000 0.000000 0.000000 0.000000 0.000000 0.000000 0.000000 0.000000 0.000000 . . . . . . . . . . . . . . . . . . . . . . . . . . . . . . . . . . . . . . . . . . . . . . . . . . . . . . . . 
0.616 15.1167 1.233332 -0.000241 -0.000000 0.215815 744.736938 0.000000 359.999988 -0.000000 10000.000000 3977913597.432166 2.000000 -0.188001 5.211999 0.007070 10000.000000 3977913597.432166 0.000003 -0.000000 -0.000002 3905.930176 14.211999 -0.532151 -0.000044 -0.156293 -0.000012 545.992554 0.000000 0.000000 0.000000 0.000000 0.000000 0.000000 0.000000 0.000000 0.000000 0.000000 0.000000 -1.000000 0.000000 0.000000 0.000000 0.000000 0.000000 0.000000 0.000000 0.000000 0.000000 0.000000 0.000000 0.000000 0.000000 . . . . . . . . . . . . . . . . . . . . . . . . . . . . . . . . . . . . . . . . . . . . . . . . . . . . . . . . 
0.633 15.1333 1.233332 -0.000236 -0.000000 0.215815 744.736938 0.000000 359.999988 -0.000000 10000.000000 10000.000000 2.000000 -0.188001 5.211999 0.007070 10000.000000 10000.000000 -0.000001 -0.000000 -0.000040 3905.930176 14.211999 -0.532152 -0.000043 -0.156321 -0.000012 543.587585 0.000000 0.000000 0.000000 0.000000 0.000000 0.000000 0.000000 0.000000 0.000000 0.000000 0.000000 -1.000000 0.000000 0.000000 0.000000 0.000000 0.000000 0.000000 0.000000 0.000000 0.000000 0.000000 0.000000 0.000000 0.000000 . . . . . . . . . . . . . . . . . . . . . . . . . . . . . . . . . . . . . . . . . . . . . . . . . . . . . . . . 
0.65 15.15 1.266665 -0.000225 -0.000000 0.435549 753.498230 0.000000 359.999988 -0.000000 10000.000000 10000.000000 2.000000 -0.188001 5.211999 0.007070 10000.000000 10000.000000 -0.000005 -0.000000 -0.000075 3905.930176 14.211999 -0.532153 -0.000043 -0.156324 -0.000012 542.677856 0.000000 0.000000 0.000000 0.000000 0.000000 0.000000 0.000000 0.000000 0.000000 0.000000 0.000000 -1.000000 0.000000 0.000000 0.000000 0.000000 0.000000 0.000000 0.000000 0.000000 0.000000 0.000000 0.000000 0.000000 0.000000 . . . . . . . . . . . . . . . . . . . . . . . . . . . . . . . . . . . . . . . . . . . . . . . . . . . . . . . . 
0.666 15.1667 1.266665 -0.000208 -0.000000 0.435549 753.498230 0.000000 359.999988 -0.000000 10000.000000 10000.000000 2.000000 -0.188001 5.211999 0.007070 10000.000000 10000.000000 -0.000008 -0.000000 -0.000106 3905.930176 14.211999 -0.532154 -0.000043 -0.156304 -0.000012 544.559143 0.000000 0.000000 0.000000 0.000000 0.000000 0.000000 0.000000 0.000000 0.000000 0.000000 0.000000 -1.000000 0.000000 0.000000 0.000000 0.000000 0.000000 0.000000 0.000000 0.000000 0.000000 0.000000 0.000000 0.000000 0.000000 . . . . . . . . . . . . . . . . . . . . . . . . . . . . . . . . . . . . . . . . . . . . . . . . . . . . . . . . 
0.683 15.1833 1.299999 -0.000189 -0.000000 0.435549 753.498230 0.000000 359.999988 -0.000000 10000.000000 10000.000000 2.000000 -0.188001 5.211999 0.007070 10000.000000 10000.000000 -0.000010 -0.000000 -0.000130 3905.930176 14.211999 -0.532156 -0.000043 -0.156269 -0.000012 546.238159 0.000000 0.000000 0.000000 0.000000 0.000000 0.000000 0.000000 0.000000 0.000000 0.000000 0.000000 -1.000000 0.000000 0.000000 0.000000 0.000000 0.000000 0.000000 0.000000 0.000000 0.000000 0.000000 0.000000 0.000000 0.000000 . . . . . . . . . . . . . . . . . . . . . . . . . . . . . . . . . . . . . . . . . . . . . . . . . . . . . . . . 
0.699 15.2 1.299999 -0.000157 -0.000000 0.435549 753.498230 0.000000 359.999988 -0.000000 10000.000000 10000.000000 2.000000 -0.188001 5.211999 0.007070 10000.000000 10000.000000 -0.000013 -0.000000 -0.000154 3905.930176 14.211999 -0.532159 -0.000044 -0.156203 -0.000012 548.308655 0.000000 0.000000 0.000000 0.000000 0.000000 0.000000 0.000000 0.000000 0.000000 0.000000 0.000000 -1.000000 0.000000 0.000000 0.000000 0.000000 0.000000 0.000000 0.000000 0.000000 0.000000 0.000000 0.000000 0.000000 0.000000 . . . . . . . . . . . . . . . . . . . . . . . . . . . . . . . . . . . . . . . . . . . . . . . . . . . . . . . . 
0.716 15.2167 1.333332 -0.000131 -0.000000 0.435549 753.498230 0.000000 359.999988 -0.000000 10000.000000 10000.000000 2.000000 -0.188001 5.211999 0.007070 10000.000000 10000.000000 -0.000014 -0.000000 -0.000168 3905.930176 14.211999 -0.532161 -0.000044 -0.156143 -0.000012 549.693481 0.000000 0.000000 0.000000 0.000000 0.000000 0.000000 0.000000 0.000000 0.000000 0.000000 0.000000 -1.000000 0.000000 0.000000 0.000000 0.000000 0.000000 0.000000 0.000000 0.000000 0.000000 0.000000 0.000000 0.000000 0.000000 . . . . . . . . . . . . . . . . . . . . . . . . . . . . . . . . . . . . . . . . . . . . . . . . . . . . . . . . 
0.734 15.2333 1.333332 -0.000094 -0.000000 0.435549 753.498230 0.000000 359.999988 -0.000000 10000.000000 10000.000000 2.000000 -0.188001 5.211999 0.007070 10000.000000 10000.000000 -0.000016 -0.000000 -0.000181 3905.930176 14.211999 -0.532164 -0.000044 -0.156052 -0.000012 551.333191 0.000000 0.000000 0.000000 0.000000 0.000000 0.000000 0.000000 0.000000 0.000000 0.000000 0.000000 -1.000000 0.000000 0.000000 0.000000 0.000000 0.000000 0.000000 0.000000 0.000000 0.000000 0.000000 0.000000 0.000000 0.000000 . . . . . . . . . . . . . . . . . . . . . . . . . . . . . . . . . . . . . . . . . . . . . . . . . . . . . . . . 
0.749 15.25 1.366665 -0.000059 -0.000000 0.435549 759.806396 0.000000 359.999988 -0.000000 10000.000000 10000.000000 2.000000 -0.188001 5.211999 0.007070 10000.000000 10000.000000 -0.000016 -0.000000 -0.000189 3905.930176 14.211999 -0.532167 -0.000044 -0.155956 -0.000012 552.690125 0.000000 0.000000 0.000000 0.000000 0.000000 0.000000 0.000000 0.000000 0.000000 0.000000 0.000000 -1.000000 0.000000 0.000000 0.000000 0.000000 0.000000 0.000000 0.000000 0.000000 0.000000 0.000000 0.000000 0.000000 0.000000 . . . . . . . . . . . . . . . . . . . . . . . . . . . . . . . . . . . . . . . . . . . . . . . . . . . . . . . . 
0.766 15.2667 1.366665 -0.000026 -0.000000 0.435549 759.806396 0.000000 359.999988 -0.000000 10000.000000 10000.000000 2.000000 -0.188001 5.211999 0.007070 10000.000000 10000.000000 -0.000016 -0.000000 -0.000193 3905.930176 14.211999 -0.532170 -0.000044 -0.155852 -0.000012 553.870300 0.000000 0.000000 0.000000 0.000000 0.000000 0.000000 0.000000 0.000000 0.000000 0.000000 0.000000 -1.000000 0.000000 0.000000 0.000000 0.000000 0.000000 0.000000 0.000000 0.000000 0.000000 0.000000 0.000000 0.000000 0.000000 . . . . . . . . . . . . . . . . . . . . . . . . . . . . . . . . . . . . . . . . . . . . . . . . . . . . . . . . 
0.784 15.2833 1.399999 0.000003 -0.000000 0.435549 759.806396 0.000000 359.999988 -0.000000 10000.000000 10000.000000 2.000000 -0.188001 5.211999 0.007070 10000.000000 10000.000000 -0.000016 -0.000000 -0.000193 3905.930176 14.211999 -0.532173 -0.000044 -0.155744 -0.000012 554.885498 0.000000 0.000000 0.000000 0.000000 0.000000 0.000000 0.000000 0.000000 0.000000 0.000000 0.000000 -1.000000 0.000000 0.000000 0.000000 0.000000 0.000000 0.000000 0.000000 0.000000 0.000000 0.000000 0.000000 0.000000 0.000000 . . . . . . . . . . . . . . . . . . . . . . . . . . . . . . . . . . . . . . . . . . . . . . . . . . . . . . . . 
0.8 15.3 1.399999 0.000027 -0.000000 0.435549 759.806396 0.000000 359.999988 -0.000000 10000.000000 10000.000000 2.000000 -0.188001 5.211999 0.007069 10000.000000 10000.000000 -0.000015 -0.000000 -0.000189 3905.930176 14.211999 -0.532176 -0.000044 -0.155633 -0.000012 555.751221 0.000000 0.000000 0.000000 0.000000 0.000000 0.000000 0.000000 0.000000 0.000000 0.000000 0.000000 -1.000000 0.000000 0.000000 0.000000 0.000000 0.000000 0.000000 0.000000 0.000000 0.000000 0.000000 0.000000 0.000000 0.000000 . . . . . . . . . . . . . . . . . . . . . . . . . . . . . . . . . . . . . . . . . . . . . . . . . . . . . . . . 
0.817 15.3167 1.433332 0.000046 -0.000000 0.435549 759.806396 0.000000 359.999988 -0.000000 10000.000000 10000.000000 2.000000 -0.188001 5.211999 0.007069 10000.000000 10000.000000 -0.000014 -0.000000 -0.000181 3905.930176 14.211999 -0.532180 -0.000044 -0.155522 -0.000012 556.484253 0.000000 0.000000 0.000000 0.000000 0.000000 0.000000 0.000000 0.000000 0.000000 0.000000 0.000000 -1.000000 0.000000 0.000000 0.000000 0.000000 0.000000 0.000000 0.000000 0.000000 0.000000 0.000000 0.000000 0.000000 0.000000 . . . . . . . . . . . . . . . . . . . . . . . . . . . . . . . . . . . . . . . . . . . . . . . . . . . . . . . . 
0.833 15.3333 1.433332 0.000059 -0.000000 0.435549 759.806396 0.000000 359.999988 -0.000000 10000.000000 10000.000000 2.000000 -0.188001 5.211999 0.007069 10000.000000 10000.000000 -0.000013 -0.000000 -0.000171 3905.930176 14.211999 -0.532183 -0.000045 -0.155413 -0.000012 557.101501 0.000000 0.000000 0.000000 0.000000 0.000000 0.000000 0.000000 0.000000 0.000000 0.000000 0.000000 -1.000000 0.000000 0.000000 0.000000 0.000000 0.000000 0.000000 0.000000 0.000000 0.000000 0.000000 0.000000 0.000000 0.000000 . . . . . . . . . . . . . . . . . . . . . . . . . . . . . . . . . . . . . . . . . . . . . . . . . . . . . . . . 
0.849 15.35 1.466665 0.000067 -0.000000 0.435549 762.960449 0.000000 359.999988 -0.000000 10000.000000 10000.000000 2.000000 -0.188001 5.211999 0.007069 10000.000000 10000.000000 -0.000012 -0.000000 -0.000159 3905.930176 14.211999 -0.532185 -0.000045 -0.155307 -0.000012 557.618835 0.000000 0.000000 0.000000 0.000000 0.000000 0.000000 0.000000 0.000000 0.000000 0.000000 0.000000 -1.000000 0.000000 0.000000 0.000000 0.000000 0.000000 0.000000 0.000000 0.000000 0.000000 0.000000 0.000000 0.000000 0.000000 . . . . . . . . . . . . . . . . . . . . . . . . . . . . . . . . . . . . . . . . . . . . . . . . . . . . . . . . 
0.866 15.3667 1.466665 0.000069 -0.000000 0.435549 762.960449 0.000000 359.999988 -0.000000 10000.000000 10000.000000 2.000000 -0.188001 5.211999 0.007069 10000.000000 10000.000000 -0.000010 -0.000000 -0.000144 3905.930176 14.211999 -0.532188 -0.000045 -0.155206 -0.000012 558.050720 0.000000 0.000000 0.000000 0.000000 0.000000 0.000000 0.000000 0.000000 0.000000 0.000000 0.000000 -1.000000 0.000000 0.000000 0.000000 0.000000 0.000000 0.000000 0.000000 0.000000 0.000000 0.000000 0.000000 0.000000 0.000000 . . . . . . . . . . . . . . . . . . . . . . . . . . . . . . . . . . . . . . . . . . . . . . . . . . . . . . . . 
0.884 15.3833 1.499999 0.000069 -0.000000 0.435549 762.960449 0.000000 359.999988 -0.000000 10000.000000 10000.000000 2.000000 -0.188001 5.211999 0.007069 10000.000000 10000.000000 -0.000009 -0.000000 -0.000129 3905.930176 14.211999 -0.532190 -0.000045 -0.155111 -0.000012 558.410095 0.000000 0.000000 0.000000 0.000000 0.000000 0.000000 0.000000 0.000000 0.000000 0.000000 0.000000 -1.000000 0.000000 0.000000 0.000000 0.000000 0.000000 0.000000 0.000000 0.000000 0.000000 0.000000 0.000000 0.000000 0.000000 . . . . . . . . . . . . . . . . . . . . . . . . . . . . . . . . . . . . . . . . . . . . . . . . . . . . . . . . 
0.899 15.4 1.499999 0.000066 -0.000000 0.435549 762.960449 0.000000 359.999988 -0.000000 10000.000000 10000.000000 2.000000 -0.188001 5.211999 0.007069 10000.000000 10000.000000 -0.000008 -0.000000 -0.000112 3905.930176 14.211999 -0.532192 -0.000045 -0.155023 -0.000012 558.708374 0.000000 0.000000 0.000000 0.000000 0.000000 0.000000 0.000000 0.000000 0.000000 0.000000 0.000000 -1.000000 0.000000 0.000000 0.000000 0.000000 0.000000 0.000000 0.000000 0.000000 0.000000 0.000000 0.000000 0.000000 0.000000 . . . . . . . . . . . . . . . . . . . . . . . . . . . . . . . . . . . . . . . . . . . . . . . . . . . . . . . . 
0.917 15.4167 1.533332 0.000063 0.000000 0.435549 762.960449 0.000000 359.999988 -0.000000 10000.000000 10000.000000 2.000000 -0.188001 5.211999 0.007069 10000.000000 10000.000000 -0.000007 -0.000000 -0.000095 3905.930176 14.211999 -0.532194 -0.000045 -0.154942 -0.000012 558.955322 0.000000 0.000000 0.000000 0.000000 0.000000 0.000000 0.000000 0.000000 0.000000 0.000000 0.000000 -1.000000 0.000000 0.000000 0.000000 0.000000 0.000000 0.000000 0.000000 0.000000 0.000000 0.000000 0.000000 0.000000 0.000000 . . . . . . . . . . . . . . . . . . . . . . . . . . . . . . . . . . . . . . . . . . . . . . . . . . . . . . . . 
0.933 15.4333 1.533332 0.000060 0.000000 0.435549 762.960449 0.000000 359.999988 -0.000000 10000.000000 10000.000000 2.000000 -0.188001 5.211999 0.007093 10000.000000 10000.000000 -0.000006 -0.000000 -0.000078 3905.930176 14.211999 -0.532195 -0.000046 -0.154870 -0.000012 559.159363 0.000000 0.000000 0.000000 0.000000 0.000000 0.000000 0.000000 0.000000 0.000000 0.000000 0.000000 -1.000000 0.000000 0.000000 0.000000 0.000000 0.000000 0.000000 0.000000 0.000000 0.000000 0.000000 0.000000 0.000000 0.000000 . . . . . . . . . . . . . . . . . . . . . . . . . . . . . . . . . . . . . . . . . . . . . . . . . . . . . . . . 
0.949 15.45 1.566665 0.000058 0.000000 0.435549 766.114502 0.000000 359.999988 -0.000000 10000.000000 10000.000000 2.000000 -0.188001 5.211999 0.007093 10000.000000 10000.000000 -0.000005 -0.000000 -0.000061 3905.930176 14.211999 -0.532196 -0.000046 -0.154808 -0.000012 559.327698 0.000000 0.000000 0.000000 0.000000 0.000000 0.000000 0.000000 0.000000 0.000000 0.000000 0.000000 -1.000000 0.000000 0.000000 0.000000 0.000000 0.000000 0.000000 0.000000 0.000000 0.000000 0.000000 0.000000 0.000000 0.000000 . . . . . . . . . . . . . . . . . . . . . . . . . . . . . . . . . . . . . . . . . . . . . . . . . . . . . . . . 
0.967 15.4667 1.566665 0.000058 0.000000 0.435549 766.114502 0.000000 359.999988 -0.000000 10000.000000 10000.000000 2.000000 -0.188001 5.211999 0.007116 10000.000000 10000.000000 -0.000004 -0.000000 -0.000046 3905.930176 14.211999 -0.532197 -0.000046 -0.154757 -0.000012 559.458496 0.000000 0.000000 0.000000 0.000000 0.000000 0.000000 0.000000 0.000000 0.000000 0.000000 0.000000 -1.000000 0.000000 0.000000 0.000000 0.000000 0.000000 0.000000 0.000000 0.000000 0.000000 0.000000 0.000000 0.000000 0.000000 . . . . . . . . . . . . . . . . . . . . . . . . . . . . . . . . . . . . . . . . . . . . . . . . . . . . . . . . 
0.983 15.4833 1.599998 0.000058 0.000000 0.435549 766.114502 0.000000 359.999988 -0.000000 10000.000000 10000.000000 2.000000 -0.188001 5.211999 0.007116 10000.000000 10000.000000 -0.000004 -0.000000 -0.000032 3905.930176 14.211999 -0.532198 -0.000046 -0.154717 -0.000012 559.560730 0.000000 0.000000 0.000000 0.000000 0.000000 0.000000 0.000000 0.000000 0.000000 0.000000 0.000000 -1.000000 0.000000 0.000000 0.000000 0.000000 0.000000 0.000000 0.000000 0.000000 0.000000 0.000000 0.000000 0.000000 0.000000 . . . . . . . . . . . . . . . . . . . . . . . . . . . . . . . . . . . . . . . . . . . . . . . . . . . . . . . . 
0.999 15.5 1.599998 0.000059 0.000000 0.435549 766.114502 0.000000 359.999988 -0.000000 10000.000000 10000.000000 2.000000 -0.188001 5.211999 0.007069 10000.000000 10000.000000 -0.000002 -0.000000 -0.000015 3905.930176 14.211999 -0.532198 -0.000046 -0.154674 -0.000012 559.674255 0.000000 0.000000 0.000000 0.000000 0.000000 0.000000 0.000000 0.000000 0.000000 0.000000 0.000000 -1.000000 0.000000 0.000000 0.000000 0.000000 0.000000 0.000000 0.000000 0.000000 0.000000 0.000000 0.000000 0.000000 0.000000 . . . . . . . . . . . . . . . . . . . . . . . . . . . . . . . . . . . . . . . . . . . . . . . . . . . . . . . . 
1.016 15.5167 1.633332 0.000060 0.000000 0.435549 766.114502 0.000000 359.999988 -0.000000 10000.000000 10000.000000 2.000000 -0.188001 5.211999 0.006998 10000.000000 10000.000000 -0.000001 0.000000 -0.000003 3905.930176 14.211999 -0.532198 -0.000046 -0.154649 -0.000012 559.746887 0.000000 0.000000 0.000000 0.000000 0.000000 0.000000 0.000000 0.000000 0.000000 0.000000 0.000000 -1.000000 0.000000 0.000000 0.000000 0.000000 0.000000 0.000000 0.000000 0.000000 0.000000 0.000000 0.000000 0.000000 0.000000 . . . . . . . . . . . . . . . . . . . . . . . . . . . . . . . . . . . . . . . . . . . . . . . . . . . . . . . . 
1.034 15.5333 1.633332 0.000060 0.000000 0.435549 766.114502 0.000000 359.999988 -0.000000 10000.000000 10000.000000 2.000000 -0.188001 5.211999 0.006925 10000.000000 10000.000000 -0.000000 0.000000 0.000009 3905.930176 14.211999 -0.532198 -0.000046 -0.154630 -0.000012 559.810852 0.000000 0.000000 0.000000 0.000000 0.000000 0.000000 0.000000 0.000000 0.000000 0.000000 0.000000 -1.000000 0.000000 0.000000 0.000000 0.000000 0.000000 0.000000 0.000000 0.000000 0.000000 0.000000 0.000000 0.000000 0.000000 . . . . . . . . . . . . . . . . . . . . . . . . . . . . . . . . . . . . . . . . . . . . . . . . . . . . . . . . 
1.05 15.55 1.666665 0.000059 0.000000 0.435549 767.165894 0.000000 359.999988 -0.000000 10000.000000 17929038614.815006 2.000000 -0.188001 5.211999 0.006865 10000.000000 17929038614.815006 0.000001 0.000000 0.000020 3905.930176 14.211999 -0.532198 -0.000046 -0.154620 -0.000012 559.866211 0.000000 0.000000 0.000000 0.000000 0.000000 0.000000 0.000000 0.000000 0.000000 0.000000 0.000000 -1.000000 0.000000 0.000000 0.000000 0.000000 0.000000 0.000000 0.000000 0.000000 0.000000 0.000000 0.000000 0.000000 0.000000 . . . . . . . . . . . . . . . . . . . . . . . . . . . . . . . . . . . . . . . . . . . . . . . . . . . . . . . . 
1.066 15.5667 1.666665 0.000055 0.000000 0.435549 767.165894 0.000000 359.999988 -0.000000 10000.000000 7200128401.102175 2.000000 -0.188001 5.211999 0.006855 10000.000000 7200128401.102175 0.000001 0.000000 0.000029 3905.930176 14.211999 -0.532198 -0.000046 -0.154617 -0.000012 559.908691 0.000000 0.000000 0.000000 0.000000 0.000000 0.000000 0.000000 0.000000 0.000000 0.000000 0.000000 -1.000000 0.000000 0.000000 0.000000 0.000000 0.000000 0.000000 0.000000 0.000000 0.000000 0.000000 0.000000 0.000000 0.000000 . . . . . . . . . . . . . . . . . . . . . . . . . . . . . . . . . . . . . . . . . . . . . . . . . . . . . . . . 
1.083 15.5833 1.699998 0.000049 0.000000 0.435549 767.165894 0.000000 359.999988 -0.000000 10000.000000 4770014120.203085 2.000000 -0.188001 5.211999 0.006825 10000.000000 4770014120.203085 0.000002 0.000000 0.000037 3905.930176 14.211999 -0.532197 -0.000045 -0.154623 -0.000012 559.943481 0.000000 0.000000 0.000000 0.000000 0.000000 0.000000 0.000000 0.000000 0.000000 0.000000 0.000000 -1.000000 0.000000 0.000000 0.000000 0.000000 0.000000 0.000000 0.000000 0.000000 0.000000 0.000000 0.000000 0.000000 0.000000 . . . . . . . . . . . . . . . . . . . . . . . . . . . . . . . . . . . . . . . . . . . . . . . . . . . . . . . . 
1.099 15.6 1.699998 0.000043 0.000000 0.435549 767.165894 0.000000 359.999988 -0.000000 10000.000000 3707056702.367712 2.000000 -0.188001 5.211999 0.006750 10000.000000 3707056702.367712 0.000003 0.000000 0.000044 3905.930176 14.211999 -0.532196 -0.000045 -0.154635 -0.000012 559.971924 0.000000 0.000000 0.000000 0.000000 0.000000 0.000000 0.000000 0.000000 0.000000 0.000000 0.000000 -1.000000 0.000000 0.000000 0.000000 0.000000 0.000000 0.000000 0.000000 0.000000 0.000000 0.000000 0.000000 0.000000 0.000000 . . . . . . . . . . . . . . . . . . . . . . . . . . . . . . . . . . . . . . . . . . . . . . . . . . . . . . . . 
1.116 15.6167 1.733332 0.000037 0.000000 0.435549 767.165894 0.000000 359.999988 -0.000000 10000.000000 3113368535.053129 2.000000 -0.188001 5.211999 0.006697 10000.000000 3113368535.053129 0.000003 0.000000 0.000050 3905.930176 14.211999 -0.532196 -0.000045 -0.154654 -0.000012 559.995239 0.000000 0.000000 0.000000 0.000000 0.000000 0.000000 0.000000 0.000000 0.000000 0.000000 0.000000 -1.000000 0.000000 0.000000 0.000000 0.000000 0.000000 0.000000 0.000000 0.000000 0.000000 0.000000 0.000000 0.000000 0.000000 . . . . . . . . . . . . . . . . . . . . . . . . . . . . . . . . . . . . . . . . . . . . . . . . . . . . . . . . 
1.134 15.6333 1.733332 0.000032 0.000001 0.435549 767.165894 0.000000 359.999988 -0.000000 10000.000000 2731605635.534745 2.000000 -0.188001 5.211999 0.006662 10000.000000 2731605635.534745 0.000004 0.000000 0.000055 3905.930176 14.211999 -0.532195 -0.000044 -0.154680 -0.000012 560.014282 0.000000 0.000000 0.000000 0.000000 0.000000 0.000000 0.000000 0.000000 0.000000 0.000000 0.000000 -1.000000 0.000000 0.000000 0.000000 0.000000 0.000000 0.000000 0.000000 0.000000 0.000000 0.000000 0.000000 0.000000 0.000000 . . . . . . . . . . . . . . . . . . . . . . . . . . . . . . . . . . . . . . . . . . . . . . . . . . . . . . . . 
1.149 15.65 1.766665 0.000028 0.000001 0.435549 766.114502 0.000000 359.999988 -0.000000 10000.000000 2461675405.449548 2.000000 -0.188001 5.211999 0.006629 10000.000000 2461675405.449548 0.000004 0.000000 0.000059 3905.930176 14.211999 -0.532194 -0.000044 -0.154711 -0.000012 560.029846 0.000000 0.000000 0.000000 0.000000 0.000000 0.000000 0.000000 0.000000 0.000000 0.000000 0.000000 -1.000000 0.000000 0.000000 0.000000 0.000000 0.000000 0.000000 0.000000 0.000000 0.000000 0.000000 0.000000 0.000000 0.000000 . . . . . . . . . . . . . . . . . . . . . . . . . . . . . . . . . . . . . . . . . . . . . . . . . . . . . . . . 
1.166 15.6667 1.766665 0.000025 0.000001 0.435549 766.114502 0.000000 359.999988 -0.000000 10000.000000 2252327514.201343 2.000000 -0.188001 5.211999 0.006621 10000.000000 2252327514.201343 0.000005 0.000000 0.000061 3905.930176 14.211999 -0.532193 -0.000043 -0.154747 -0.000012 560.042603 0.000000 0.000000 0.000000 0.000000 0.000000 0.000000 0.000000 0.000000 0.000000 0.000000 0.000000 -1.000000 0.000000 0.000000 0.000000 0.000000 0.000000 0.000000 0.000000 0.000000 0.000000 0.000000 0.000000 0.000000 0.000000 . . . . . . . . . . . . . . . . . . . . . . . . . . . . . . . . . . . . . . . . . . . . . . . . . . . . . . . . 
1.184 15.6833 1.799998 0.000023 0.000000 0.435549 766.114502 0.000000 359.999988 -0.000000 10000.000000 2096042187.623436 2.000000 -0.188001 5.211999 0.006615 10000.000000 2096042187.623436 0.000005 0.000000 0.000063 3905.930176 14.211999 -0.532192 -0.000043 -0.154784 -0.000012 560.052429 0.000000 0.000000 0.000000 0.000000 0.000000 0.000000 0.000000 0.000000 0.000000 0.000000 0.000000 -1.000000 0.000000 0.000000 0.000000 0.000000 0.000000 0.000000 0.000000 0.000000 0.000000 0.000000 0.000000 0.000000 0.000000 . . . . . . . . . . . . . . . . . . . . . . . . . . . . . . . . . . . . . . . . . . . . . . . . . . . . . . . . 
1.199 15.7 1.799998 0.000021 0.000000 0.435549 766.114502 0.000000 359.999988 -0.000000 10000.000000 1960606977.129971 2.000000 -0.188001 5.211999 0.006609 10000.000000 1960606977.129971 0.000005 0.000000 0.000064 3905.930176 14.211999 -0.532191 -0.000042 -0.154829 -0.000012 560.061523 0.000000 0.000000 0.000000 0.000000 0.000000 0.000000 0.000000 0.000000 0.000000 0.000000 0.000000 -1.000000 0.000000 0.000000 0.000000 0.000000 0.000000 0.000000 0.000000 0.000000 0.000000 0.000000 0.000000 0.000000 0.000000 . . . . . . . . . . . . . . . . . . . . . . . . . . . . . . . . . . . . . . . . . . . . . . . . . . . . . . . . 
1.216 15.7167 1.833331 0.000018 0.000000 0.435549 766.114502 0.000000 359.999988 -0.000000 10000.000000 1881272397.022813 2.000000 -0.188001 5.211999 0.006605 10000.000000 1881272397.022813 0.000005 0.000000 0.000064 3905.930176 14.211999 -0.532190 -0.000042 -0.154871 -0.000012 560.067688 0.000000 0.000000 0.000000 0.000000 0.000000 0.000000 0.000000 0.000000 0.000000 0.000000 0.000000 -1.000000 0.000000 0.000000 0.000000 0.000000 0.000000 0.000000 0.000000 0.000000 0.000000 0.000000 0.000000 0.000000 0.000000 . . . . . . . . . . . . . . . . . . . . . . . . . . . . . . . . . . . . . . . . . . . . . . . . . . . . . . . . 
1.234 15.7333 1.833331 0.000013 -0.000000 0.435549 766.114502 0.000000 359.999988 -0.000000 10000.000000 1822844027.336900 2.000000 -0.188001 5.211999 0.006576 10000.000000 1822844027.336900 0.000006 0.000000 0.000062 3905.930176 14.211999 -0.532189 -0.000042 -0.154919 -0.000012 560.074158 0.000000 0.000000 0.000000 0.000000 0.000000 0.000000 0.000000 0.000000 0.000000 0.000000 0.000000 -1.000000 0.000000 0.000000 0.000000 0.000000 0.000000 0.000000 0.000000 0.000000 0.000000 0.000000 0.000000 0.000000 0.000000 . . . . . . . . . . . . . . . . . . . . . . . . . . . . . . . . . . . . . . . . . . . . . . . . . . . . . . . . 
1.249 15.75 1.866665 0.000007 -0.000001 0.435549 764.712708 0.000000 359.999988 -0.000000 10000.000000 1814268593.521092 2.000000 -0.188001 5.211999 0.006572 10000.000000 1814268593.521092 0.000006 0.000000 0.000060 3905.930176 14.211999 -0.532188 -0.000041 -0.154964 -0.000012 560.078857 0.000000 0.000000 0.000000 0.000000 0.000000 0.000000 0.000000 0.000000 0.000000 0.000000 0.000000 -1.000000 0.000000 0.000000 0.000000 0.000000 0.000000 0.000000 0.000000 0.000000 0.000000 0.000000 0.000000 0.000000 0.000000 . . . . . . . . . . . . . . . . . . . . . . . . . . . . . . . . . . . . . . . . . . . . . . . . . . . . . . . . 
1.266 15.7667 1.866665 -0.000001 -0.000001 0.435549 764.712708 0.000000 359.999988 -0.000000 10000.000000 1850586345.688566 2.000000 -0.188001 5.211999 0.006543 10000.000000 1850586345.688566 0.000006 0.000000 0.000057 3905.930176 14.211999 -0.532187 -0.000041 -0.155009 -0.000012 560.082642 0.000000 0.000000 0.000000 0.000000 0.000000 0.000000 0.000000 0.000000 0.000000 0.000000 0.000000 -1.000000 0.000000 0.000000 0.000000 0.000000 0.000000 0.000000 0.000000 0.000000 0.000000 0.000000 0.000000 0.000000 0.000000 . . . . . . . . . . . . . . . . . . . . . . . . . . . . . . . . . . . . . . . . . . . . . . . . . . . . . . . . 
1.284 15.7833 1.899998 -0.000008 -0.000001 0.435549 764.712708 0.000000 359.999988 -0.000000 10000.000000 1931696713.253241 2.000000 -0.188001 5.211999 0.006515 10000.000000 1931696713.253241 0.000005 0.000000 0.000053 3905.930176 14.211999 -0.532186 -0.000041 -0.155049 -0.000012 560.085571 0.000000 0.000000 0.000000 0.000000 0.000000 0.000000 0.000000 0.000000 0.000000 0.000000 0.000000 -1.000000 0.000000 0.000000 0.000000 0.000000 0.000000 0.000000 0.000000 0.000000 0.000000 0.000000 0.000000 0.000000 0.000000 . . . . . . . . . . . . . . . . . . . . . . . . . . . . . . . . . . . . . . . . . . . . . . . . . . . . . . . . 
1.299 15.8 1.899998 -0.000017 -0.000001 0.435549 764.712708 0.000000 359.999988 -0.000000 10000.000000 2091805863.398246 2.000000 -0.188001 5.211999 0.006508 10000.000000 2091805863.398246 0.000005 -0.000000 0.000048 3905.930176 14.211999 -0.532185 -0.000041 -0.155093 -0.000012 560.088257 0.000000 0.000000 0.000000 0.000000 0.000000 0.000000 0.000000 0.000000 0.000000 0.000000 0.000000 -1.000000 0.000000 0.000000 0.000000 0.000000 0.000000 0.000000 0.000000 0.000000 0.000000 0.000000 0.000000 0.000000 0.000000 . . . . . . . . . . . . . . . . . . . . . . . . . . . . . . . . . . . . . . . . . . . . . . . . . . . . . . . . 
1.316 15.8167 1.933331 -0.000024 -0.000001 0.435549 764.712708 0.000000 359.999988 -0.000000 10000.000000 2312719555.432483 2.000000 -0.188001 5.211999 0.006479 10000.000000 2312719555.432483 0.000004 -0.000000 0.000042 3905.930176 14.211999 -0.532184 -0.000041 -0.155128 -0.000012 560.090210 0.000000 0.000000 0.000000 0.000000 0.000000 0.000000 0.000000 0.000000 0.000000 0.000000 0.000000 -1.000000 0.000000 0.000000 0.000000 0.000000 0.000000 0.000000 0.000000 0.000000 0.000000 0.000000 0.000000 0.000000 0.000000 . . . . . . . . . . . . . . . . . . . . . . . . . . . . . . . . . . . . . . . . . . . . . . . . . . . . . . . . 
1.333 15.8333 1.933331 -0.000031 -0.000001 0.435549 764.712708 0.000000 359.999988 -0.000000 10000.000000 2694306259.070674 2.000000 -0.188001 5.211999 0.006473 10000.000000 2694306259.070674 0.000004 -0.000000 0.000036 3905.930176 14.211999 -0.532184 -0.000041 -0.155164 -0.000012 560.092041 0.000000 0.000000 0.000000 0.000000 0.000000 0.000000 0.000000 0.000000 0.000000 0.000000 0.000000 -1.000000 0.000000 0.000000 0.000000 0.000000 0.000000 0.000000 0.000000 0.000000 0.000000 0.000000 0.000000 0.000000 0.000000 . . . . . . . . . . . . . . . . . . . . . . . . . . . . . . . . . . . . . . . . . . . . . . . . . . . . . . . . 
1.349 15.85 1.966665 -0.000036 -0.000000 0.435549 719.153870 0.000000 359.999988 -0.000000 10000.000000 3254870550.774075 2.000000 -0.188001 5.211999 0.006467 10000.000000 3254870550.774075 0.000003 -0.000000 0.000029 3905.930176 14.211999 -0.532183 -0.000041 -0.155194 -0.000012 560.093384 0.000000 0.000000 0.000000 0.000000 0.000000 0.000000 0.000000 0.000000 0.000000 0.000000 0.000000 -1.000000 0.000000 0.000000 0.000000 0.000000 0.000000 0.000000 0.000000 0.000000 0.000000 0.000000 0.000000 0.000000 0.000000 . . . . . . . . . . . . . . . . . . . . . . . . . . . . . . . . . . . . . . . . . . . . . . . . . . . . . . . . 
1.367 15.8667 1.966665 -0.000039 -0.000000 0.435549 719.153870 0.000000 359.999988 -0.000000 10000.000000 4164050208.090480 2.000000 -0.188001 5.211999 0.006462 10000.000000 4164050208.090480 0.000002 -0.000000 0.000022 3905.930176 14.211999 -0.532183 -0.000041 -0.155219 -0.000012 560.094543 0.000000 0.000000 0.000000 0.000000 0.000000 0.000000 0.000000 0.000000 0.000000 0.000000 0.000000 -1.000000 0.000000 0.000000 0.000000 0.000000 0.000000 0.000000 0.000000 0.000000 0.000000 0.000000 0.000000 0.000000 0.000000 . . . . . . . . . . . . . . . . . . . . . . . . . . . . . . . . . . . . . . . . . . . . . . . . . . . . . . . . 
1.383 15.8833 1.999998 -0.000041 0.000000 0.435549 719.153870 0.000000 359.999988 -0.000000 10000.000000 5796206215.059381 2.000000 -0.188001 5.211999 0.006456 10000.000000 5796206215.059381 0.000002 -0.000000 0.000015 3905.930176 14.211999 -0.532182 -0.000041 -0.155240 -0.000012 560.095459 0.000000 0.000000 0.000000 0.000000 0.000000 0.000000 0.000000 0.000000 0.000000 0.000000 0.000000 -1.000000 0.000000 0.000000 0.000000 0.000000 0.000000 0.000000 0.000000 0.000000 0.000000 0.000000 0.000000 0.000000 0.000000 . . . . . . . . . . . . . . . . . . . . . . . . . . . . . . . . . . . . . . . . . . . . . . . . . . . . . . . . 
1.399 15.9 1.999998 -0.000041 0.000000 0.435549 719.153870 0.000000 359.999988 -0.000000 10000.000000 9388966844.796127 2.000000 -0.188001 5.211999 0.006451 10000.000000 9388966844.796127 0.000001 -0.000000 0.000007 3905.930176 14.211999 -0.532182 -0.000041 -0.155256 -0.000012 560.096191 0.000000 0.000000 0.000000 0.000000 0.000000 0.000000 0.000000 0.000000 0.000000 0.000000 0.000000 -1.000000 0.000000 0.000000 0.000000 0.000000 0.000000 0.000000 0.000000 0.000000 0.000000 0.000000 0.000000 0.000000 0.000000 . . . . . . . . . . . . . . . . . . . . . . . . . . . . . . . . . . . . . . . . . . . . . . . . . . . . . . . . 
1.416 15.9167 2.033331 -0.000040 0.000000 0.435549 719.153870 0.000000 359.999988 -0.000000 10000.000000 22899391346.831707 2.000000 -0.188001 5.211999 0.006447 10000.000000 22899391346.831707 0.000000 -0.000000 -0.000000 3905.930176 14.211999 -0.532182 -0.000041 -0.155267 -0.000012 560.096802 0.000000 0.000000 0.000000 0.000000 0.000000 0.000000 0.000000 0.000000 0.000000 0.000000 0.000000 -1.000000 0.000000 0.000000 0.000000 0.000000 0.000000 0.000000 0.000000 0.000000 0.000000 0.000000 0.000000 0.000000 0.000000 . . . . . . . . . . . . . . . . . . . . . . . . . . . . . . . . . . . . . . . . . . . . . . . . . . . . . . . . 
1.434 15.9333 2.033331 -0.000038 0.000000 0.435549 719.153870 0.000000 359.999988 -0.000000 10000.000000 10000.000000 2.000000 -0.188001 5.211999 0.006442 10000.000000 10000.000000 -0.000000 -0.000000 -0.000008 3905.930176 14.211999 -0.532182 -0.000041 -0.155273 -0.000012 560.097351 0.000000 0.000000 0.000000 0.000000 0.000000 0.000000 0.000000 0.000000 0.000000 0.000000 0.000000 -1.000000 0.000000 0.000000 0.000000 0.000000 0.000000 0.000000 0.000000 0.000000 0.000000 0.000000 0.000000 0.000000 0.000000 . . . . . . . . . . . . . . . . . . . . . . . . . . . . . . . . . . . . . . . . . . . . . . . . . . . . . . . . 
1.449 15.95 2.066665 -0.000036 0.000000 0.215815 665.885071 0.000000 359.999988 -0.000000 10000.000000 10000.000000 2.000000 -0.188001 5.211999 0.006438 10000.000000 10000.000000 -0.000001 -0.000000 -0.000014 3905.930176 14.211999 -0.532182 -0.000041 -0.155274 -0.000012 559.396362 0.000000 0.000000 0.000000 0.000000 0.000000 0.000000 0.000000 0.000000 0.000000 0.000000 0.000000 -1.000000 0.000000 0.000000 0.000000 0.000000 0.000000 0.000000 0.000000 0.000000 0.000000 0.000000 0.000000 0.000000 0.000000 . . . . . . . . . . . . . . . . . . . . . . . . . . . . . . . . . . . . . . . . . . . . . . . . . . . . . . . . 
1.466 15.9667 2.066665 -0.000034 0.000000 0.215815 665.885071 0.000000 359.999988 -0.000000 10000.000000 10000.000000 2.000000 -0.188001 5.211999 0.006434 10000.000000 10000.000000 -0.000001 0.000000 -0.000020 3905.930176 14.211999 -0.532183 -0.000041 -0.155271 -0.000012 555.717773 0.000000 0.000000 0.000000 0.000000 0.000000 0.000000 0.000000 0.000000 0.000000 0.000000 0.000000 -1.000000 0.000000 0.000000 0.000000 0.000000 0.000000 0.000000 0.000000 0.000000 0.000000 0.000000 0.000000 0.000000 0.000000 . . . . . . . . . . . . . . . . . . . . . . . . . . . . . . . . . . . . . . . . . . . . . . . . . . . . . . . . 
1.484 15.9833 2.099998 -0.000032 0.000000 0.215815 665.885071 0.000000 359.999988 -0.000000 10000.000000 10000.000000 2.000000 -0.188001 5.211999 0.006430 10000.000000 10000.000000 -0.000002 0.000000 -0.000025 3905.930176 14.211999 -0.532183 -0.000041 -0.155264 -0.000012 552.259521 0.000000 0.000000 0.000000 0.000000 0.000000 0.000000 0.000000 0.000000 0.000000 0.000000 0.000000 -1.000000 0.000000 0.000000 0.000000 0.000000 0.000000 0.000000 0.000000 0.000000 0.000000 0.000000 0.000000 0.000000 0.000000 . . . . . . . . . . . . . . . . . . . . . . . . . . . . . . . . . . . . . . . . . . . . . . . . . . . . . . . . 
1.499 16 2.099998 -0.000029 0.000000 0.215815 665.885071 0.000000 359.999988 -0.000000 10000.000000 10000.000000 2.000000 -0.188001 5.211999 0.006427 10000.000000 10000.000000 -0.000002 0.000000 -0.000029 3905.930176 14.211999 -0.532183 -0.000041 -0.155253 -0.000012 549.114380 0.000000 0.000000 0.000000 0.000000 0.000000 0.000000 0.000000 0.000000 0.000000 0.000000 0.000000 -1.000000 0.000000 0.000000 0.000000 0.000000 0.000000 0.000000 0.000000 0.000000 0.000000 0.000000 0.000000 0.000000 0.000000 . . . . . . . . . . . . . . . . . . . . . . . . . . . . . . . . . . . . . . . . . . . . . . . . . . . . . . . . 
1.516 16.0167 2.133331 -0.000024 0.000000 0.215815 665.885071 0.000000 359.999988 -0.000000 10000.000000 10000.000000 2.000000 -0.188001 5.211999 0.006423 10000.000000 10000.000000 -0.000003 0.000000 -0.000032 3905.930176 14.211999 -0.532184 -0.000041 -0.155239 -0.000012 546.317627 0.000000 0.000000 0.000000 0.000000 0.000000 0.000000 0.000000 0.000000 0.000000 0.000000 0.000000 -1.000000 0.000000 0.000000 0.000000 0.000000 0.000000 0.000000 0.000000 0.000000 0.000000 0.000000 0.000000 0.000000 0.000000 . . . . . . . . . . . . . . . . . . . . . . . . . . . . . . . . . . . . . . . . . . . . . . . . . . . . . . . . 
1.534 16.0333 2.133331 -0.000019 0.000000 0.215815 665.885071 0.000000 359.999988 -0.000000 10000.000000 10000.000000 2.000000 -0.188001 5.211999 0.006419 10000.000000 10000.000000 -0.000003 0.000000 -0.000034 3905.930176 14.211999 -0.532184 -0.000041 -0.155223 -0.000012 543.869995 0.000000 0.000000 0.000000 0.000000 0.000000 0.000000 0.000000 0.000000 0.000000 0.000000 0.000000 -1.000000 0.000000 0.000000 0.000000 0.000000 0.000000 0.000000 0.000000 0.000000 0.000000 0.000000 0.000000 0.000000 0.000000 . . . . . . . . . . . . . . . . . . . . . . . . . . . . . . . . . . . . . . . . . . . . . . . . . . . . . . . . 
1.549 16.05 2.166664 -0.000014 -0.000000 0.215815 655.721985 0.000000 359.999988 -0.000000 10000.000000 10000.000000 2.000000 -0.188001 5.211999 0.006416 10000.000000 10000.000000 -0.000003 0.000000 -0.000036 3905.930176 14.211999 -0.532185 -0.000041 -0.155205 -0.000012 541.752747 0.000000 0.000000 0.000000 0.000000 0.000000 0.000000 0.000000 0.000000 0.000000 0.000000 0.000000 -1.000000 0.000000 0.000000 0.000000 0.000000 0.000000 0.000000 0.000000 0.000000 0.000000 0.000000 0.000000 0.000000 0.000000 . . . . . . . . . . . . . . . . . . . . . . . . . . . . . . . . . . . . . . . . . . . . . . . . . . . . . . . . 
