DatTime SimTime MediaTime LonAccel LatAccel Throttle Brake Gear Heading HeadingError HeadwayDistance HeadwayTime Lane LaneOffset RoadOffset Steer TailwayDistance TailwayTime Velocity LatVelocity VertVelocity XPos YPos ZPos Roll Pitch Yaw EngineRPM SlipFR SlipFL SlipRR SlipRL User1 User2 User3 User4 User5 User6 User7 User8 User9 User10 User11 User12 User13 User14 User15 User16 User17 User18 User19 User20 User21 GazeObject FRAME_NUM EXPERIMENT_TIME GMT_S GMT_MS APPROX_DELAY GAZE_DIR_QUAL_R EYE_POS_R_X EYE_POS_R_Y EYE_POS_R_Z GAZE_DIR_QUAL_L EYE_POS_L_X EYE_POS_L_Y EYE_POS_L_Z GAZE_DIR_QUAL GAZE_HEADING GAZE_PITCH GAZE_ORIGIN_X GAZE_ORIGIN_Y GAZE_ORIGIN_Z GAZE_DIRECTION_X GAZE_DIRECTION_Y GAZE_DIRECTION_Z GAZE_DIRECTION_FILTERED_X GAZE_DIRECTION_FILTERED_Y GAZE_DIRECTION_FILTERED_Z LEFT_GAZE_DIRECTION_X LEFT_GAZE_DIRECTION_Y LEFT_GAZE_DIRECTION_Z LEFT_GAZE_DIRECTION_FILTERED_X LEFT_GAZE_DIRECTION_FILTERED_Y LEFT_GAZE_DIRECTION_FILTERED_Z RIGHT_GAZE_DIRECTION_X RIGHT_GAZE_DIRECTION_Y RIGHT_GAZE_DIRECTION_Z RIGHT_GAZE_DIRECTION_FILTERED_X RIGHT_GAZE_DIRECTION_FILTERED_Y RIGHT_GAZE_DIRECTION_FILTERED_Z GAZE_ORIGIN_R_X GAZE_ORIGIN_R_Y GAZE_ORIGIN_R_Z GAZE_ORIGIN_L_X GAZE_ORIGIN_L_Y GAZE_ORIGIN_L_Z GAZE_OBJ_NAME FILTERED_GAZE_OBJ_NAME WORLD_INTERSECTION_X WORLD_INTERSECTION_Y WORLD_INTERSECTION_Z INTERSECTION_SCREEN_X INTERSECTION_SCREEN_Y FILTERED_WORLD_INTERSECTION_X FILTERED_WORLD_INTERSECTION_Y FILTERED_WORLD_INTERSECTION_Z FILTERED_INTERSECTION_SCREEN_X FILTERED_INTERSECTION_SCREEN_Y 
0.016 0.3 0.000000 0.118143 -0.000247 0.728525 0.700905 6.000000 359.999986 -0.000000 10000.000000 1187593.700612 2.000000 -0.188000 5.212000 -0.003181 10000.000000 1187593.700612 0.008424 -0.000016 0.004845 3905.930176 14.212000 -0.530745 0.000045 -0.045663 -0.000014 656.719604 0.000000 0.000000 0.000000 0.000000 0.000000 0.000000 0.000000 0.000000 0.000000 0.000000 0.000000 -1.000000 0.000000 0.000000 0.000000 0.000000 0.000000 0.000000 0.000000 0.000000 0.000000 0.000000 0.000000 0.000000 0.000000 . . . . . . . . . . . . . . . . . . . . . . . . . . . . . . . . . . . . . . . . . . . . . . . . . . . . . . . . 
0.034 0.316667 0.166666 0.140570 -0.000288 0.728525 0.700905 6.000000 359.999977 -0.000000 10000.000000 898713.128418 2.000000 -0.188001 5.211999 -0.003181 10000.000000 898713.128418 0.011131 -0.000021 0.003627 3905.930420 14.211999 -0.530675 0.000062 -0.055080 -0.000023 645.955383 0.000000 0.000000 0.000000 0.000000 0.000000 0.000000 0.000000 0.000000 0.000000 0.000000 0.000000 -1.000000 0.000000 0.000000 0.000000 0.000000 0.000000 0.000000 0.000000 0.000000 0.000000 0.000000 0.000000 0.000000 0.000000 . . . . . . . . . . . . . . . . . . . . . . . . . . . . . . . . . . . . . . . . . . . . . . . . . . . . . . . . 
0.048 0.333333 0.166666 0.161174 -0.000327 0.728525 0.700905 6.000000 359.999964 -0.000001 10000.000000 706247.215441 2.000000 -0.188001 5.211999 -0.003181 10000.000000 706247.215441 0.014162 -0.000027 0.002544 3905.930664 14.211999 -0.530623 0.000082 -0.064134 -0.000036 636.860657 0.000000 0.000000 0.000000 0.000000 0.000000 0.000000 0.000000 0.000000 0.000000 0.000000 0.000000 -1.000000 0.000000 0.000000 0.000000 0.000000 0.000000 0.000000 0.000000 0.000000 0.000000 0.000000 0.000000 0.000000 0.000000 . . . . . . . . . . . . . . . . . . . . . . . . . . . . . . . . . . . . . . . . . . . . . . . . . . . . . . . . 
0.065 0.35 0.200000 0.178809 -0.000361 0.728525 0.700905 6.000000 359.999947 -0.000001 10000.000000 572890.667992 2.000000 -0.188002 5.211998 -0.003181 10000.000000 572890.667992 0.017457 -0.000034 0.001567 3905.930908 14.211998 -0.530589 0.000105 -0.072540 -0.000053 629.295959 0.000000 0.000000 0.000000 0.000000 0.000000 0.000000 0.000000 0.000000 0.000000 0.000000 0.000000 -1.000000 0.000000 0.000000 0.000000 0.000000 0.000000 0.000000 0.000000 0.000000 0.000000 0.000000 0.000000 0.000000 0.000000 . . . . . . . . . . . . . . . . . . . . . . . . . . . . . . . . . . . . . . . . . . . . . . . . . . . . . . . . 
0.082 0.366667 0.200000 0.191878 -0.000389 0.728525 0.700905 6.000000 359.999928 -0.000001 10000.000000 482726.649699 2.000000 -0.188002 5.211998 -0.003181 10000.000000 482726.649699 0.020717 -0.000041 0.000720 3905.931152 14.211998 -0.530571 0.000130 -0.079640 -0.000072 623.433289 0.000000 0.000000 0.000000 0.000000 0.000000 0.000000 0.000000 0.000000 0.000000 0.000000 0.000000 -1.000000 0.000000 0.000000 0.000000 0.000000 0.000000 0.000000 0.000000 0.000000 0.000000 0.000000 0.000000 0.000000 0.000000 . . . . . . . . . . . . . . . . . . . . . . . . . . . . . . . . . . . . . . . . . . . . . . . . . . . . . . . . 
0.099 0.383333 0.233333 0.202700 -0.000413 0.728525 0.700905 6.000000 359.999902 -0.000002 10000.000000 407483.586114 2.000000 -0.188003 5.211997 -0.003181 10000.000000 407483.586114 0.024541 -0.000048 -0.000185 3905.931641 14.211997 -0.530567 0.000160 -0.086615 -0.000098 618.025269 0.000000 0.000000 0.000000 0.000000 0.000000 0.000000 0.000000 0.000000 0.000000 0.000000 0.000000 -1.000000 0.000000 0.000000 0.000000 0.000000 0.000000 0.000000 0.000000 0.000000 0.000000 0.000000 0.000000 0.000000 0.000000 . . . . . . . . . . . . . . . . . . . . . . . . . . . . . . . . . . . . . . . . . . . . . . . . . . . . . . . . 
0.116 0.4 0.233333 0.210072 -0.000430 0.728525 0.700905 6.000000 359.999872 -0.000002 10000.000000 354186.552888 2.000000 -0.188004 5.211996 -0.003181 10000.000000 354186.552888 0.028232 -0.000056 -0.001002 3905.931885 14.211996 -0.530576 0.000191 -0.092042 -0.000128 613.948120 0.000000 0.000000 0.000000 0.000000 0.000000 0.000000 0.000000 0.000000 0.000000 0.000000 0.000000 -1.000000 0.000000 0.000000 0.000000 0.000000 0.000000 0.000000 0.000000 0.000000 0.000000 0.000000 0.000000 0.000000 0.000000 . . . . . . . . . . . . . . . . . . . . . . . . . . . . . . . . . . . . . . . . . . . . . . . . . . . . . . . . 
0.132 0.416667 0.266666 0.215241 -0.000444 0.728525 0.700905 6.000000 359.999843 -0.000003 10000.000000 317163.318125 2.000000 -0.188005 5.211995 -0.003181 10000.000000 317163.318125 0.031527 -0.000063 -0.001697 3905.932373 14.211995 -0.530596 0.000219 -0.095844 -0.000157 611.053711 0.000000 0.000000 0.000000 0.000000 0.000000 0.000000 0.000000 0.000000 0.000000 0.000000 0.000000 -1.000000 0.000000 0.000000 0.000000 0.000000 0.000000 0.000000 0.000000 0.000000 0.000000 0.000000 0.000000 0.000000 0.000000 . . . . . . . . . . . . . . . . . . . . . . . . . . . . . . . . . . . . . . . . . . . . . . . . . . . . . . . . 
0.148 0.433333 0.266666 0.221033 -0.000458 0.728525 0.700905 6.000000 359.999801 -0.000003 10000.000000 278928.697826 2.000000 -0.188006 5.211994 -0.003181 10000.000000 278928.697826 0.035847 -0.000072 -0.002558 3905.933105 14.211994 -0.530635 0.000257 -0.099418 -0.000199 608.093689 0.000000 0.000000 0.000000 0.000000 0.000000 0.000000 0.000000 0.000000 0.000000 0.000000 0.000000 -1.000000 0.000000 0.000000 0.000000 0.000000 0.000000 0.000000 0.000000 0.000000 0.000000 0.000000 0.000000 0.000000 0.000000 . . . . . . . . . . . . . . . . . . . . . . . . . . . . . . . . . . . . . . . . . . . . . . . . . . . . . . . . 
0.166 0.45 0.300000 0.225861 -0.000471 0.728525 0.700905 6.000000 359.999758 -0.000004 10000.000000 251422.711918 2.000000 -0.188007 5.211993 -0.003181 10000.000000 251422.711918 0.039768 -0.000080 -0.003276 3905.933594 14.211993 -0.530684 0.000289 -0.101377 -0.000242 606.051392 0.000000 0.000000 0.000000 0.000000 0.000000 0.000000 0.000000 0.000000 0.000000 0.000000 0.000000 -1.000000 0.000000 0.000000 0.000000 0.000000 0.000000 0.000000 0.000000 0.000000 0.000000 0.000000 0.000000 0.000000 0.000000 . . . . . . . . . . . . . . . . . . . . . . . . . . . . . . . . . . . . . . . . . . . . . . . . . . . . . . . . 
0.183 0.466667 0.300000 0.230661 -0.000487 0.728525 0.000000 6.000000 359.999710 -0.000005 10000.000000 228444.100330 2.000000 -0.188009 5.211991 -0.003181 10000.000000 228444.100330 0.043767 -0.000089 -0.003923 3905.934326 14.211991 -0.530743 0.000321 -0.102243 -0.000290 604.456360 0.000000 0.000000 0.000000 0.000000 0.000000 0.000000 0.000000 0.000000 0.000000 0.000000 0.000000 -1.000000 0.000000 0.000000 0.000000 0.000000 0.000000 0.000000 0.000000 0.000000 0.000000 0.000000 0.000000 0.000000 0.000000 . . . . . . . . . . . . . . . . . . . . . . . . . . . . . . . . . . . . . . . . . . . . . . . . . . . . . . . . 
0.198 0.483333 0.300000 0.235657 -0.000508 0.728525 0.000000 6.000000 359.999658 -0.000006 10000.000000 208941.203430 2.000000 -0.188010 5.211990 -0.003181 10000.000000 208941.203430 0.047852 -0.000098 -0.004478 3905.935059 14.211990 -0.530813 0.000350 -0.102093 -0.000342 603.224182 0.000000 0.000000 0.000000 0.000000 0.000000 0.000000 0.000000 0.000000 0.000000 0.000000 0.000000 -1.000000 0.000000 0.000000 0.000000 0.000000 0.000000 0.000000 0.000000 0.000000 0.000000 0.000000 0.000000 0.000000 0.000000 . . . . . . . . . . . . . . . . . . . . . . . . . . . . . . . . . . . . . . . . . . . . . . . . . . . . . . . . 
0.215 0.5 0.333333 0.240781 -0.000528 0.728525 0.000000 6.000000 359.999601 -0.000007 10000.000000 192189.238151 2.000000 -0.188012 5.211988 -0.003181 10000.000000 192189.238151 0.052023 -0.000107 -0.004933 3905.935791 14.211988 -0.530890 0.000378 -0.101021 -0.000399 602.285706 0.000000 0.000000 0.000000 0.000000 0.000000 0.000000 0.000000 0.000000 0.000000 0.000000 0.000000 -1.000000 0.000000 0.000000 0.000000 0.000000 0.000000 0.000000 0.000000 0.000000 0.000000 0.000000 0.000000 0.000000 0.000000 . . . . . . . . . . . . . . . . . . . . . . . . . . . . . . . . . . . . . . . . . . . . . . . . . . . . . . . . 
0.232 0.516667 0.366666 0.245762 -0.000541 0.728525 0.000000 6.000000 359.999539 -0.000008 10000.000000 177671.129171 2.000000 -0.188013 5.211987 -0.003181 10000.000000 177671.129171 0.056275 -0.000116 -0.005285 3905.936768 14.211987 -0.530975 0.000403 -0.099128 -0.000461 601.584900 0.000000 0.000000 0.000000 0.000000 0.000000 0.000000 0.000000 0.000000 0.000000 0.000000 0.000000 -1.000000 0.000000 0.000000 0.000000 0.000000 0.000000 0.000000 0.000000 0.000000 0.000000 0.000000 0.000000 0.000000 0.000000 . . . . . . . . . . . . . . . . . . . . . . . . . . . . . . . . . . . . . . . . . . . . . . . . . . . . . . . . 
0.248 0.533333 0.366666 0.250399 -0.000549 0.728525 0.000000 6.000000 359.999472 -0.000009 10000.000000 164994.903904 2.000000 -0.188015 5.211985 -0.003181 10000.000000 164994.903904 0.060599 -0.000126 -0.005536 3905.937744 14.211985 -0.531064 0.000426 -0.096519 -0.000528 601.076111 0.000000 0.000000 0.000000 0.000000 0.000000 0.000000 0.000000 0.000000 0.000000 0.000000 0.000000 -1.000000 0.000000 0.000000 0.000000 0.000000 0.000000 0.000000 0.000000 0.000000 0.000000 0.000000 0.000000 0.000000 0.000000 . . . . . . . . . . . . . . . . . . . . . . . . . . . . . . . . . . . . . . . . . . . . . . . . . . . . . . . . 
0.265 0.55 0.366666 0.254584 -0.000554 0.728525 0.000000 6.000000 359.999399 -0.000010 10000.000000 153855.400528 2.000000 -0.188017 5.211983 -0.003181 10000.000000 153855.400528 0.064987 -0.000135 -0.005689 3905.938721 14.211983 -0.531157 0.000447 -0.093300 -0.000601 600.722900 0.000000 0.000000 0.000000 0.000000 0.000000 0.000000 0.000000 0.000000 0.000000 0.000000 0.000000 -1.000000 0.000000 0.000000 0.000000 0.000000 0.000000 0.000000 0.000000 0.000000 0.000000 0.000000 0.000000 0.000000 0.000000 . . . . . . . . . . . . . . . . . . . . . . . . . . . . . . . . . . . . . . . . . . . . . . . . . . . . . . . . 
0.283 0.566667 0.400000 0.258290 -0.000562 0.728525 0.000000 6.000000 359.999321 -0.000012 10000.000000 144008.011882 2.000000 -0.188020 5.211980 -0.003181 10000.000000 144008.011882 0.069432 -0.000145 -0.005742 3905.939941 14.211980 -0.531251 0.000467 -0.089570 -0.000679 600.495667 0.000000 0.000000 0.000000 0.000000 0.000000 0.000000 0.000000 0.000000 0.000000 0.000000 0.000000 -1.000000 0.000000 0.000000 0.000000 0.000000 0.000000 0.000000 0.000000 0.000000 0.000000 0.000000 0.000000 0.000000 0.000000 . . . . . . . . . . . . . . . . . . . . . . . . . . . . . . . . . . . . . . . . . . . . . . . . . . . . . . . . 
0.298 0.583333 0.400000 0.261556 -0.000566 0.728525 0.000000 6.000000 359.999238 -0.000013 10000.000000 135256.702359 2.000000 -0.188022 5.211978 -0.003181 10000.000000 135256.702359 0.073925 -0.000154 -0.005681 3905.940918 14.211978 -0.531345 0.000486 -0.085405 -0.000762 600.370850 0.000000 0.000000 0.000000 0.000000 0.000000 0.000000 0.000000 0.000000 0.000000 0.000000 0.000000 -1.000000 0.000000 0.000000 0.000000 0.000000 0.000000 0.000000 0.000000 0.000000 0.000000 0.000000 0.000000 0.000000 0.000000 . . . . . . . . . . . . . . . . . . . . . . . . . . . . . . . . . . . . . . . . . . . . . . . . . . . . . . . . 
0.315 0.6 0.433333 0.264228 -0.000560 0.728525 0.000000 6.000000 359.999150 -0.000015 10000.000000 127448.153637 2.000000 -0.188025 5.211975 -0.003181 10000.000000 127448.153637 0.078456 -0.000164 -0.005520 3905.942383 14.211975 -0.531437 0.000505 -0.080863 -0.000850 600.329529 0.000000 0.000000 0.000000 0.000000 0.000000 0.000000 0.000000 0.000000 0.000000 0.000000 0.000000 -1.000000 0.000000 0.000000 0.000000 0.000000 0.000000 0.000000 0.000000 0.000000 0.000000 0.000000 0.000000 0.000000 0.000000 . . . . . . . . . . . . . . . . . . . . . . . . . . . . . . . . . . . . . . . . . . . . . . . . . . . . . . . . 
0.332 0.616667 0.433333 0.266291 -0.000560 0.728525 0.000000 6.000000 359.999057 -0.000016 10000.000000 120451.992490 2.000000 -0.188028 5.211972 -0.003181 10000.000000 120451.992490 0.083014 -0.000173 -0.005272 3905.943604 14.211972 -0.531526 0.000522 -0.076005 -0.000943 600.356323 0.000000 0.000000 0.000000 0.000000 0.000000 0.000000 0.000000 0.000000 0.000000 0.000000 0.000000 -1.000000 0.000000 0.000000 0.000000 0.000000 0.000000 0.000000 0.000000 0.000000 0.000000 0.000000 0.000000 0.000000 0.000000 . . . . . . . . . . . . . . . . . . . . . . . . . . . . . . . . . . . . . . . . . . . . . . . . . . . . . . . . 
0.348 0.633333 0.466666 0.267779 -0.000566 0.728525 0.000000 6.000000 359.998958 -0.000018 10000.000000 114160.066827 2.000000 -0.188031 5.211969 -0.003181 10000.000000 114160.066827 0.087590 -0.000183 -0.004952 3905.945068 14.211969 -0.531610 0.000539 -0.070887 -0.001042 600.439087 0.000000 0.000000 0.000000 0.000000 0.000000 0.000000 0.000000 0.000000 0.000000 0.000000 0.000000 -1.000000 0.000000 0.000000 0.000000 0.000000 0.000000 0.000000 0.000000 0.000000 0.000000 0.000000 0.000000 0.000000 0.000000 . . . . . . . . . . . . . . . . . . . . . . . . . . . . . . . . . . . . . . . . . . . . . . . . . . . . . . . . 
0.366 0.65 0.499999 0.268698 -0.000572 0.728525 0.000000 6.000000 359.998854 -0.000020 10000.000000 108482.412692 2.000000 -0.188033 5.211967 -0.003181 10000.000000 108482.412692 0.092176 -0.000192 -0.004576 3905.946533 14.211967 -0.531688 0.000554 -0.065561 -0.001146 600.567932 0.000000 0.000000 0.000000 0.000000 0.000000 0.000000 0.000000 0.000000 0.000000 0.000000 0.000000 -1.000000 0.000000 0.000000 0.000000 0.000000 0.000000 0.000000 0.000000 0.000000 0.000000 0.000000 0.000000 0.000000 0.000000 . . . . . . . . . . . . . . . . . . . . . . . . . . . . . . . . . . . . . . . . . . . . . . . . . . . . . . . . 
0.382 0.666667 0.499999 0.269063 -0.000575 0.728525 0.000000 6.000000 359.998744 -0.000022 10000.000000 103342.868059 2.000000 -0.188037 5.211963 -0.003181 10000.000000 103342.868059 0.096761 -0.000202 -0.004157 3905.947998 14.211963 -0.531760 0.000568 -0.060081 -0.001256 600.734619 0.000000 0.000000 0.000000 0.000000 0.000000 0.000000 0.000000 0.000000 0.000000 0.000000 0.000000 -1.000000 0.000000 0.000000 0.000000 0.000000 0.000000 0.000000 0.000000 0.000000 0.000000 0.000000 0.000000 0.000000 0.000000 . . . . . . . . . . . . . . . . . . . . . . . . . . . . . . . . . . . . . . . . . . . . . . . . . . . . . . . . 
0.399 0.683333 0.533333 0.268920 -0.000576 0.728525 0.000000 6.000000 359.998630 -0.000024 10000.000000 98676.068524 2.000000 -0.188040 5.211960 -0.003181 10000.000000 98676.068524 0.101338 -0.000212 -0.003712 3905.949707 14.211960 -0.531824 0.000582 -0.054498 -0.001370 600.932739 0.017190 0.017201 0.013945 0.013992 0.000000 0.000000 0.000000 0.000000 0.000000 0.000000 0.000000 -1.000000 0.000000 0.000000 0.000000 0.000000 0.000000 0.000000 0.000000 0.000000 0.000000 0.000000 0.000000 0.000000 0.000000 . . . . . . . . . . . . . . . . . . . . . . . . . . . . . . . . . . . . . . . . . . . . . . . . . . . . . . . . 
0.415 0.7 0.533333 0.268279 -0.000576 0.728525 0.000000 6.000000 359.998509 -0.000026 10000.000000 94427.154394 2.000000 -0.188044 5.211956 -0.003181 10000.000000 94427.154394 0.105899 -0.000221 -0.003251 3905.951416 14.211956 -0.531881 0.000593 -0.048862 -0.001491 601.156799 0.017086 0.017094 0.014632 0.014680 0.000000 0.000000 0.000000 0.000000 0.000000 0.000000 0.000000 -1.000000 0.000000 0.000000 0.000000 0.000000 0.000000 0.000000 0.000000 0.000000 0.000000 0.000000 0.000000 0.000000 0.000000 . . . . . . . . . . . . . . . . . . . . . . . . . . . . . . . . . . . . . . . . . . . . . . . . . . . . . . . . 
0.432 0.716667 0.533333 0.267160 -0.000575 0.728525 0.000000 6.000000 359.998384 -0.000028 10000.000000 90548.735163 2.000000 -0.188048 5.211952 -0.003181 10000.000000 90548.735163 0.110436 -0.000231 -0.002786 3905.953125 14.211952 -0.531931 0.000604 -0.043220 -0.001616 601.402344 0.016958 0.016965 0.015314 0.015363 0.000000 0.000000 0.000000 0.000000 0.000000 0.000000 0.000000 -1.000000 0.000000 0.000000 0.000000 0.000000 0.000000 0.000000 0.000000 0.000000 0.000000 0.000000 0.000000 0.000000 0.000000 . . . . . . . . . . . . . . . . . . . . . . . . . . . . . . . . . . . . . . . . . . . . . . . . . . . . . . . . 
0.449 0.733333 0.566666 0.265602 -0.000573 0.728525 0.000000 6.000000 359.998254 -0.000030 10000.000000 86999.661965 2.000000 -0.188052 5.211948 -0.003181 10000.000000 86999.661965 0.114941 -0.000240 -0.002327 3905.955078 14.211948 -0.531972 0.000613 -0.037618 -0.001746 601.665527 0.016811 0.016817 0.015984 0.016034 0.000000 0.000000 0.000000 0.000000 0.000000 0.000000 0.000000 -1.000000 0.000000 0.000000 0.000000 0.000000 0.000000 0.000000 0.000000 0.000000 0.000000 0.000000 0.000000 0.000000 0.000000 . . . . . . . . . . . . . . . . . . . . . . . . . . . . . . . . . . . . . . . . . . . . . . . . . . . . . . . . 
0.465 1.25 1.099999 0.240917 -0.000572 0.728525 0.000000 6.000000 359.991899 -0.000141 10000.000000 42661.868487 2.000000 -0.188249 5.211751 -0.003185 10000.000000 42661.868487 0.234401 -0.000489 0.000968 3906.045654 14.211751 -0.531740 0.000659 0.027383 -0.008101 610.789490 0.008505 0.008450 0.025851 0.025871 0.000000 0.000000 0.000000 0.000000 0.000000 0.000000 0.000000 -1.000000 0.000000 0.000000 0.000000 0.000000 0.000000 0.000000 0.000000 0.000000 0.000000 0.000000 0.000000 0.000000 0.000000 . . . . . . . . . . . . . . . . . . . . . . . . . . . . . . . . . . . . . . . . . . . . . . . . . . . . . . . . 
0.482 1.26667 1.099999 0.249598 -0.000598 0.728525 0.000000 6.000000 359.991621 -0.000146 10000.000000 41877.391953 2.000000 -0.188258 5.211742 -0.003185 10000.000000 41877.391953 0.238792 -0.000498 0.001013 3906.049561 14.211742 -0.531725 0.000665 0.027262 -0.008379 611.054810 0.008040 0.007986 0.025988 0.026006 0.000000 0.000000 0.000000 0.000000 0.000000 0.000000 0.000000 -1.000000 0.000000 0.000000 0.000000 0.000000 0.000000 0.000000 0.000000 0.000000 0.000000 0.000000 0.000000 0.000000 0.000000 . . . . . . . . . . . . . . . . . . . . . . . . . . . . . . . . . . . . . . . . . . . . . . . . . . . . . . . . 
0.499 1.28333 1.133332 0.258216 -0.000621 0.728525 0.000000 6.000000 359.991338 -0.000151 10000.000000 41097.109932 2.000000 -0.188266 5.211734 -0.003185 10000.000000 41097.109932 0.243326 -0.000508 0.001060 3906.053467 14.211734 -0.531710 0.000669 0.027228 -0.008662 611.323669 0.007577 0.007524 0.026118 0.026135 0.000000 0.000000 0.000000 0.000000 0.000000 0.000000 0.000000 -1.000000 0.000000 0.000000 0.000000 0.000000 0.000000 0.000000 0.000000 0.000000 0.000000 0.000000 0.000000 0.000000 0.000000 . . . . . . . . . . . . . . . . . . . . . . . . . . . . . . . . . . . . . . . . . . . . . . . . . . . . . . . . 
0.516 1.3 1.133332 0.266770 -0.000643 0.728525 0.000000 6.000000 359.991050 -0.000156 10000.000000 40322.329335 2.000000 -0.188276 5.211724 -0.003186 10000.000000 40322.329335 0.248001 -0.000518 0.001108 3906.057617 14.211724 -0.531693 0.000672 0.027290 -0.008950 611.596863 0.007117 0.007064 0.026241 0.026256 0.000000 0.000000 0.000000 0.000000 0.000000 0.000000 0.000000 -1.000000 0.000000 0.000000 0.000000 0.000000 0.000000 0.000000 0.000000 0.000000 0.000000 0.000000 0.000000 0.000000 0.000000 . . . . . . . . . . . . . . . . . . . . . . . . . . . . . . . . . . . . . . . . . . . . . . . . . . . . . . . . 
0.532 1.31667 1.166665 0.276628 -0.000668 0.728525 0.000000 6.000000 359.990755 -0.000161 10000.000000 39544.400257 2.000000 -0.188285 5.211715 -0.003186 10000.000000 39544.400257 0.252880 -0.000528 0.001149 3906.061768 14.211715 -0.531676 0.000672 0.027454 -0.009245 611.874878 0.006674 0.006623 0.025984 0.025946 0.000000 0.000000 0.000000 0.000000 0.000000 0.000000 0.000000 -1.000000 0.000000 0.000000 0.000000 0.000000 0.000000 0.000000 0.000000 0.000000 0.000000 0.000000 0.000000 0.000000 0.000000 . . . . . . . . . . . . . . . . . . . . . . . . . . . . . . . . . . . . . . . . . . . . . . . . . . . . . . . . 
0.549 1.33333 1.166665 0.291868 -0.000716 0.728525 0.000000 6.000000 359.990451 -0.000167 10000.000000 38747.392402 2.000000 -0.188295 5.211705 -0.003186 10000.000000 38747.392402 0.258081 -0.000540 0.001171 3906.065918 14.211705 -0.531659 0.000669 0.027730 -0.009549 612.158630 0.005770 0.005736 0.025549 0.025510 0.000000 0.000000 0.000000 0.000000 0.000000 0.000000 0.000000 -1.000000 0.000000 0.000000 0.000000 0.000000 0.000000 0.000000 0.000000 0.000000 0.000000 0.000000 0.000000 0.000000 0.000000 . . . . . . . . . . . . . . . . . . . . . . . . . . . . . . . . . . . . . . . . . . . . . . . . . . . . . . . . 
0.565 1.35 1.199999 0.303429 -0.000739 0.728525 0.000000 6.000000 359.990142 -0.000172 10000.000000 38011.376078 2.000000 -0.188304 5.211696 -0.003187 10000.000000 38011.376078 0.263079 -0.000550 0.001135 3906.070313 14.211696 -0.531641 0.000664 0.028122 -0.009858 612.448059 0.000463 0.000538 0.023868 0.023814 0.000000 0.000000 0.000000 0.000000 0.000000 0.000000 0.000000 -1.000000 0.000000 0.000000 0.000000 0.000000 0.000000 0.000000 0.000000 0.000000 0.000000 0.000000 0.000000 0.000000 0.000000 . . . . . . . . . . . . . . . . . . . . . . . . . . . . . . . . . . . . . . . . . . . . . . . . . . . . . . . . 
0.582 1.36667 1.199999 0.303341 -0.000707 0.728525 0.700905 6.000000 359.989829 -0.000178 10000.000000 37276.327970 2.000000 -0.188314 5.211686 -0.003187 10000.000000 37276.327970 0.268266 -0.000560 0.001078 3906.074707 14.211686 -0.531625 0.000656 0.028587 -0.010171 612.740540 0.001406 0.001573 0.023373 0.023323 0.000000 0.000000 0.000000 0.000000 0.000000 0.000000 0.000000 -1.000000 0.000000 0.000000 0.000000 0.000000 0.000000 0.000000 0.000000 0.000000 0.000000 0.000000 0.000000 0.000000 0.000000 . . . . . . . . . . . . . . . . . . . . . . . . . . . . . . . . . . . . . . . . . . . . . . . . . . . . . . . . 
0.599 1.38333 1.233332 0.311703 -0.000725 0.728525 0.700905 6.000000 359.989509 -0.000183 10000.000000 36527.754705 2.000000 -0.188324 5.211676 -0.003187 10000.000000 36527.754705 0.273764 -0.000572 0.001003 3906.079102 14.211676 -0.531609 0.000645 0.029116 -0.010491 613.036804 0.002784 0.002882 0.023170 0.023122 0.000000 0.000000 0.000000 0.000000 0.000000 0.000000 0.000000 -1.000000 0.000000 0.000000 0.000000 0.000000 0.000000 0.000000 0.000000 0.000000 0.000000 0.000000 0.000000 0.000000 0.000000 . . . . . . . . . . . . . . . . . . . . . . . . . . . . . . . . . . . . . . . . . . . . . . . . . . . . . . . . 
0.616 1.4 1.233332 0.327697 -0.000774 0.728525 0.700905 6.000000 359.989182 -0.000189 10000.000000 35765.490381 2.000000 -0.188335 5.211665 -0.003188 10000.000000 35765.490381 0.279599 -0.000584 0.000912 3906.083740 14.211665 -0.531595 0.000635 0.029718 -0.010818 613.338562 0.003600 0.003687 0.022733 0.022681 0.000000 0.000000 0.000000 0.000000 0.000000 0.000000 0.000000 -1.000000 0.000000 0.000000 0.000000 0.000000 0.000000 0.000000 0.000000 0.000000 0.000000 0.000000 0.000000 0.000000 0.000000 . . . . . . . . . . . . . . . . . . . . . . . . . . . . . . . . . . . . . . . . . . . . . . . . . . . . . . . . 
0.633 1.41667 1.266665 0.346426 -0.000807 0.728525 0.700905 6.000000 359.988848 -0.000195 10000.000000 34994.913632 2.000000 -0.188345 5.211655 -0.003188 10000.000000 34994.913632 0.285756 -0.000597 0.000809 3906.088379 14.211655 -0.531582 0.000625 0.030400 -0.011152 613.647522 0.004586 0.004700 0.022178 0.022120 0.000000 0.000000 0.000000 0.000000 0.000000 0.000000 0.000000 -1.000000 0.000000 0.000000 0.000000 0.000000 0.000000 0.000000 0.000000 0.000000 0.000000 0.000000 0.000000 0.000000 0.000000 . . . . . . . . . . . . . . . . . . . . . . . . . . . . . . . . . . . . . . . . . . . . . . . . . . . . . . . . 
0.649 1.43333 1.266665 0.366258 -0.000837 0.728525 0.700905 6.000000 359.988507 -0.000201 10000.000000 34224.646406 2.000000 -0.188357 5.211643 -0.003188 10000.000000 34224.646406 0.292187 -0.000609 0.000693 3906.093262 14.211643 -0.531572 0.000616 0.031167 -0.011493 613.964783 0.006019 0.006320 0.021077 0.021033 0.000000 0.000000 0.000000 0.000000 0.000000 0.000000 0.000000 -1.000000 0.000000 0.000000 0.000000 0.000000 0.000000 0.000000 0.000000 0.000000 0.000000 0.000000 0.000000 0.000000 0.000000 . . . . . . . . . . . . . . . . . . . . . . . . . . . . . . . . . . . . . . . . . . . . . . . . . . . . . . . . 
0.665 1.45 1.299999 0.385958 -0.000885 0.728525 0.700905 6.000000 359.988156 -0.000207 10000.000000 33441.930003 2.000000 -0.188368 5.211632 -0.003189 10000.000000 33441.930003 0.299026 -0.000623 0.000581 3906.098145 14.211632 -0.531563 0.000610 0.032016 -0.011844 614.290771 0.001911 0.005681 0.019800 0.019813 0.000000 0.000000 0.000000 0.000000 0.000000 0.000000 0.000000 -1.000000 0.000000 0.000000 0.000000 0.000000 0.000000 0.000000 0.000000 0.000000 0.000000 0.000000 0.000000 0.000000 0.000000 . . . . . . . . . . . . . . . . . . . . . . . . . . . . . . . . . . . . . . . . . . . . . . . . . . . . . . . . 
0.682 1.46667 1.299999 0.407432 -0.000866 0.728525 0.700905 6.000000 359.987828 -0.000212 10000.000000 32628.395713 2.000000 -0.188379 5.211621 -0.003189 10000.000000 32628.395713 0.306481 -0.000638 0.000507 3906.103027 14.211621 -0.531557 0.000604 0.032888 -0.012172 614.605469 0.019146 0.021943 0.024170 0.024112 0.000000 0.000000 0.000000 0.000000 0.000000 0.000000 0.000000 -1.000000 0.000000 0.000000 0.000000 0.000000 0.000000 0.000000 0.000000 0.000000 0.000000 0.000000 0.000000 0.000000 0.000000 . . . . . . . . . . . . . . . . . . . . . . . . . . . . . . . . . . . . . . . . . . . . . . . . . . . . . . . . 
0.699 1.48333 1.333332 0.430508 -0.000789 0.728525 0.700905 6.000000 359.987454 -0.000219 10000.000000 31861.318356 2.000000 -0.188391 5.211609 -0.003189 10000.000000 31861.318356 0.313860 -0.000648 0.000335 3906.108398 14.211609 -0.531553 0.000589 0.033965 -0.012546 614.974731 0.004245 0.004478 0.017984 0.017909 0.000000 0.000000 0.000000 0.000000 0.000000 0.000000 0.000000 -1.000000 0.000000 0.000000 0.000000 0.000000 0.000000 0.000000 0.000000 0.000000 0.000000 0.000000 0.000000 0.000000 0.000000 . . . . . . . . . . . . . . . . . . . . . . . . . . . . . . . . . . . . . . . . . . . . . . . . . . . . . . . . 
0.716 1.5 1.333332 0.458366 -0.001115 0.728525 0.700905 6.000000 359.987079 -0.000226 10000.000000 31055.311691 2.000000 -0.188404 5.211596 -0.003190 10000.000000 31055.311691 0.322006 -0.000670 0.000207 3906.113770 14.211596 -0.531551 0.000582 0.035069 -0.012921 615.336853 0.004751 0.004845 0.016958 0.016881 0.000000 0.000000 0.000000 0.000000 0.000000 0.000000 0.000000 -1.000000 0.000000 0.000000 0.000000 0.000000 0.000000 0.000000 0.000000 0.000000 0.000000 0.000000 0.000000 0.000000 0.000000 . . . . . . . . . . . . . . . . . . . . . . . . . . . . . . . . . . . . . . . . . . . . . . . . . . . . . . . . 
0.732 1.51667 1.366665 0.514818 -0.001352 0.728525 0.700905 6.000000 359.986692 -0.000232 10000.000000 30310.299434 2.000000 -0.188416 5.211584 -0.003190 10000.000000 30310.299434 0.329921 -0.000687 -0.000016 3906.119141 14.211584 -0.531551 0.000587 0.036293 -0.013308 615.710632 0.033102 0.018714 0.020706 0.021275 0.000000 0.000000 0.000000 0.000000 0.000000 0.000000 0.000000 -1.000000 0.000000 0.000000 0.000000 0.000000 0.000000 0.000000 0.000000 0.000000 0.000000 0.000000 0.000000 0.000000 0.000000 . . . . . . . . . . . . . . . . . . . . . . . . . . . . . . . . . . . . . . . . . . . . . . . . . . . . . . . . 
0.748 1.53333 1.366665 0.486605 -0.000383 0.728525 0.700905 6.000000 359.986366 -0.000238 10000.000000 29656.987775 2.000000 -0.188428 5.211572 -0.003190 10000.000000 29656.987775 0.337189 -0.000678 -0.000222 3906.124756 14.211572 -0.531554 0.000557 0.037538 -0.013634 616.053223 0.032187 0.019309 0.020501 0.021153 0.000000 0.000000 0.000000 0.000000 0.000000 0.000000 0.000000 -1.000000 0.000000 0.000000 0.000000 0.000000 0.000000 0.000000 0.000000 0.000000 0.000000 0.000000 0.000000 0.000000 0.000000 . . . . . . . . . . . . . . . . . . . . . . . . . . . . . . . . . . . . . . . . . . . . . . . . . . . . . . . . 
0.766 1.55 1.399999 0.460901 -0.000924 0.728525 0.700905 6.000000 359.985976 -0.000245 10000.000000 29015.738029 2.000000 -0.188442 5.211558 -0.003189 10000.000000 29015.738029 0.344641 -0.000708 -0.000380 3906.130371 14.211558 -0.531561 0.000528 0.038687 -0.014024 616.370728 0.031444 0.019990 0.020549 0.021127 0.000000 0.000000 0.000000 0.000000 0.000000 0.000000 0.000000 -1.000000 0.000000 0.000000 0.000000 0.000000 0.000000 0.000000 0.000000 0.000000 0.000000 0.000000 0.000000 0.000000 0.000000 . . . . . . . . . . . . . . . . . . . . . . . . . . . . . . . . . . . . . . . . . . . . . . . . . . . . . . . . 
0.783 1.56667 1.399999 0.456806 -0.001626 0.728525 0.000000 6.000000 359.985563 -0.000252 10000.000000 28388.389523 2.000000 -0.188455 5.211545 -0.003189 10000.000000 28388.389523 0.352257 -0.000735 -0.000515 3906.136230 14.211545 -0.531570 0.000536 0.039745 -0.014437 616.681274 0.030605 0.020768 0.020604 0.021099 0.000000 0.000000 0.000000 0.000000 0.000000 0.000000 0.000000 -1.000000 0.000000 0.000000 0.000000 0.000000 0.000000 0.000000 0.000000 0.000000 0.000000 0.000000 0.000000 0.000000 0.000000 . . . . . . . . . . . . . . . . . . . . . . . . . . . . . . . . . . . . . . . . . . . . . . . . . . . . . . . . 
0.798 1.58333 1.433332 0.462265 -0.001349 0.728525 0.000000 6.000000 359.985142 -0.000259 10000.000000 27774.787565 2.000000 -0.188468 5.211532 -0.003190 10000.000000 27774.787565 0.360040 -0.000747 -0.000616 3906.142090 14.211532 -0.531581 0.000557 0.040724 -0.014858 616.995972 0.029645 0.021696 0.020662 0.021063 0.000000 0.000000 0.000000 0.000000 0.000000 0.000000 0.000000 -1.000000 0.000000 0.000000 0.000000 0.000000 0.000000 0.000000 0.000000 0.000000 0.000000 0.000000 0.000000 0.000000 0.000000 . . . . . . . . . . . . . . . . . . . . . . . . . . . . . . . . . . . . . . . . . . . . . . . . . . . . . . . . 
0.816 1.6 1.433332 0.470985 -0.001083 0.728525 0.000000 6.000000 359.984714 -0.000267 10000.000000 27174.780081 2.000000 -0.188483 5.211517 -0.003190 10000.000000 27174.780081 0.367989 -0.000760 -0.000677 3906.148193 14.211517 -0.531594 0.000580 0.041637 -0.015286 617.321655 0.028551 0.022889 0.020726 0.021013 0.000000 0.000000 0.000000 0.000000 0.000000 0.000000 0.000000 -1.000000 0.000000 0.000000 0.000000 0.000000 0.000000 0.000000 0.000000 0.000000 0.000000 0.000000 0.000000 0.000000 0.000000 . . . . . . . . . . . . . . . . . . . . . . . . . . . . . . . . . . . . . . . . . . . . . . . . . . . . . . . . 
0.832 1.61667 1.466665 0.480742 -0.001075 0.728525 0.000000 6.000000 359.984278 -0.000274 10000.000000 26588.428564 2.000000 -0.188497 5.211503 -0.003190 10000.000000 26588.428564 0.376104 -0.000775 -0.000699 3906.154297 14.211503 -0.531607 0.000606 0.042494 -0.015722 617.662048 0.027497 0.024608 0.020781 0.020930 0.000000 0.000000 0.000000 0.000000 0.000000 0.000000 0.000000 -1.000000 0.000000 0.000000 0.000000 0.000000 0.000000 0.000000 0.000000 0.000000 0.000000 0.000000 0.000000 0.000000 0.000000 . . . . . . . . . . . . . . . . . . . . . . . . . . . . . . . . . . . . . . . . . . . . . . . . . . . . . . . . 
0.848 1.63333 1.466665 0.490769 -0.001128 0.728525 0.000000 6.000000 359.983833 -0.000282 10000.000000 26015.941052 2.000000 -0.188512 5.211488 -0.003191 10000.000000 26015.941052 0.384381 -0.000790 -0.000684 3906.160645 14.211488 -0.531621 0.000635 0.043308 -0.016167 618.019287 0.027160 0.026671 0.020789 0.020818 0.000000 0.000000 0.000000 0.000000 0.000000 0.000000 0.000000 -1.000000 0.000000 0.000000 0.000000 0.000000 0.000000 0.000000 0.000000 0.000000 0.000000 0.000000 0.000000 0.000000 0.000000 . . . . . . . . . . . . . . . . . . . . . . . . . . . . . . . . . . . . . . . . . . . . . . . . . . . . . . . . 
0.865 1.65 1.499999 0.500916 -0.001179 0.728525 0.000000 6.000000 359.983379 -0.000290 10000.000000 25455.538576 2.000000 -0.188527 5.211473 -0.003191 10000.000000 25455.538576 0.392843 -0.000807 -0.000636 3906.167236 14.211473 -0.531635 0.000666 0.044085 -0.016621 618.394226 0.026929 0.026930 0.020891 0.020895 0.000000 0.000000 0.000000 0.000000 0.000000 0.000000 0.000000 -1.000000 0.000000 0.000000 0.000000 0.000000 0.000000 0.000000 0.000000 0.000000 0.000000 0.000000 0.000000 0.000000 0.000000 . . . . . . . . . . . . . . . . . . . . . . . . . . . . . . . . . . . . . . . . . . . . . . . . . . . . . . . . 
0.882 1.66667 1.499999 0.511167 -0.001231 0.728525 0.700905 6.000000 359.982915 -0.000298 10000.000000 24908.159674 2.000000 -0.188543 5.211457 -0.003192 10000.000000 24908.159674 0.401476 -0.000825 -0.000559 3906.173828 14.211457 -0.531647 0.000697 0.044834 -0.017085 618.787109 0.026987 0.027026 0.021000 0.021002 0.000000 0.000000 0.000000 0.000000 0.000000 0.000000 0.000000 -1.000000 0.000000 0.000000 0.000000 0.000000 0.000000 0.000000 0.000000 0.000000 0.000000 0.000000 0.000000 0.000000 0.000000 . . . . . . . . . . . . . . . . . . . . . . . . . . . . . . . . . . . . . . . . . . . . . . . . . . . . . . . . 
0.898 1.68333 1.533332 0.521497 -0.001280 0.728525 0.700905 6.000000 359.982441 -0.000306 10000.000000 24374.040013 2.000000 -0.188559 5.211441 -0.003192 10000.000000 24374.040013 0.410273 -0.000844 -0.000459 3906.180664 14.211441 -0.531659 0.000727 0.045561 -0.017559 619.197571 0.027504 0.027549 0.021045 0.021047 0.000000 0.000000 0.000000 0.000000 0.000000 0.000000 0.000000 -1.000000 0.000000 0.000000 0.000000 0.000000 0.000000 0.000000 0.000000 0.000000 0.000000 0.000000 0.000000 0.000000 0.000000 . . . . . . . . . . . . . . . . . . . . . . . . . . . . . . . . . . . . . . . . . . . . . . . . . . . . . . . . 
0.915 1.7 1.533332 0.531928 -0.001323 0.728525 0.700905 6.000000 359.981956 -0.000315 10000.000000 23852.489245 2.000000 -0.188575 5.211425 -0.003192 10000.000000 23852.489245 0.419244 -0.000863 -0.000341 3906.187500 14.211425 -0.531668 0.000754 0.046271 -0.018044 619.625000 0.028108 0.028160 0.021085 0.021088 0.000000 0.000000 0.000000 0.000000 0.000000 0.000000 0.000000 -1.000000 0.000000 0.000000 0.000000 0.000000 0.000000 0.000000 0.000000 0.000000 0.000000 0.000000 0.000000 0.000000 0.000000 . . . . . . . . . . . . . . . . . . . . . . . . . . . . . . . . . . . . . . . . . . . . . . . . . . . . . . . . 
0.933 1.71667 1.566665 0.542440 -0.001361 0.728525 0.700905 6.000000 359.981460 -0.000324 10000.000000 23343.273959 2.000000 -0.188592 5.211408 -0.003193 10000.000000 23343.273959 0.428390 -0.000882 -0.000208 3906.194580 14.211408 -0.531676 0.000779 0.046968 -0.018540 620.068604 0.028781 0.028839 0.021128 0.021131 0.000000 0.000000 0.000000 0.000000 0.000000 0.000000 0.000000 -1.000000 0.000000 0.000000 0.000000 0.000000 0.000000 0.000000 0.000000 0.000000 0.000000 0.000000 0.000000 0.000000 0.000000 . . . . . . . . . . . . . . . . . . . . . . . . . . . . . . . . . . . . . . . . . . . . . . . . . . . . . . . . 
0.949 1.73333 1.566665 0.553023 -0.001398 0.728525 0.700905 6.000000 359.980954 -0.000332 10000.000000 22846.182029 2.000000 -0.188610 5.211390 -0.003193 10000.000000 22846.182029 0.437710 -0.000902 -0.000064 3906.201904 14.211390 -0.531682 0.000799 0.047655 -0.019046 620.527649 0.029541 0.029571 0.021174 0.021177 0.000000 0.000000 0.000000 0.000000 0.000000 0.000000 0.000000 -1.000000 0.000000 0.000000 0.000000 0.000000 0.000000 0.000000 0.000000 0.000000 0.000000 0.000000 0.000000 0.000000 0.000000 . . . . . . . . . . . . . . . . . . . . . . . . . . . . . . . . . . . . . . . . . . . . . . . . . . . . . . . . 
0.965 1.75 1.599998 0.560669 -0.001405 0.728525 0.700905 6.000000 359.980438 -0.000341 10000.000000 22367.235495 2.000000 -0.188628 5.211372 -0.003194 10000.000000 22367.235495 0.447083 -0.000921 0.000078 3906.209229 14.211372 -0.531686 0.000814 0.048331 -0.019562 621.001404 0.029526 0.029519 0.021171 0.021173 0.000000 0.000000 0.000000 0.000000 0.000000 0.000000 0.000000 -1.000000 0.000000 0.000000 0.000000 0.000000 0.000000 0.000000 0.000000 0.000000 0.000000 0.000000 0.000000 0.000000 0.000000 . . . . . . . . . . . . . . . . . . . . . . . . . . . . . . . . . . . . . . . . . . . . . . . . . . . . . . . . 
0.982 1.76667 1.599998 0.561118 -0.001382 0.728525 0.700905 6.000000 359.979914 -0.000351 10000.000000 21912.042378 2.000000 -0.188646 5.211354 -0.003194 10000.000000 21912.042378 0.456370 -0.000939 0.000209 3906.216797 14.211354 -0.531687 0.000822 0.048974 -0.020086 621.488342 0.029471 0.029463 0.021165 0.021167 0.000000 0.000000 0.000000 0.000000 0.000000 0.000000 0.000000 -1.000000 0.000000 0.000000 0.000000 0.000000 0.000000 0.000000 0.000000 0.000000 0.000000 0.000000 0.000000 0.000000 0.000000 . . . . . . . . . . . . . . . . . . . . . . . . . . . . . . . . . . . . . . . . . . . . . . . . . . . . . . . . 
0.998 1.78333 1.633332 0.557868 -0.001395 0.728525 0.700905 6.000000 359.979379 -0.000360 10000.000000 21478.904069 2.000000 -0.188664 5.211336 -0.003194 10000.000000 21478.904069 0.465573 -0.000959 0.000327 3906.224365 14.211336 -0.531687 0.000824 0.049565 -0.020621 621.986694 0.029415 0.029408 0.021159 0.021161 0.000000 0.000000 0.000000 0.000000 0.000000 0.000000 0.000000 -1.000000 0.000000 0.000000 0.000000 0.000000 0.000000 0.000000 0.000000 0.000000 0.000000 0.000000 0.000000 0.000000 0.000000 . . . . . . . . . . . . . . . . . . . . . . . . . . . . . . . . . . . . . . . . . . . . . . . . . . . . . . . . 
1.015 1.8 1.633332 0.553369 -0.001423 0.728525 0.700905 6.000000 359.978833 -0.000369 10000.000000 21066.258916 2.000000 -0.188683 5.211317 -0.003195 10000.000000 21066.258916 0.474693 -0.000978 0.000430 3906.232178 14.211317 -0.531685 0.000821 0.050083 -0.021167 622.494263 0.029360 0.029352 0.021153 0.021155 0.000000 0.000000 0.000000 0.000000 0.000000 0.000000 0.000000 -1.000000 0.000000 0.000000 0.000000 0.000000 0.000000 0.000000 0.000000 0.000000 0.000000 0.000000 0.000000 0.000000 0.000000 . . . . . . . . . . . . . . . . . . . . . . . . . . . . . . . . . . . . . . . . . . . . . . . . . . . . . . . . 
1.033 1.81667 1.666665 0.548523 -0.001430 0.728525 0.700905 6.000000 359.978277 -0.000379 10000.000000 20672.702545 2.000000 -0.188703 5.211297 -0.003195 10000.000000 20672.702545 0.483730 -0.000997 0.000517 3906.240234 14.211297 -0.531681 0.000815 0.050517 -0.021723 623.009033 0.029304 0.029297 0.021147 0.021149 0.000000 0.000000 0.000000 0.000000 0.000000 0.000000 0.000000 -1.000000 0.000000 0.000000 0.000000 0.000000 0.000000 0.000000 0.000000 0.000000 0.000000 0.000000 0.000000 0.000000 0.000000 . . . . . . . . . . . . . . . . . . . . . . . . . . . . . . . . . . . . . . . . . . . . . . . . . . . . . . . . 
1.048 1.83333 1.666665 0.543627 -0.001422 0.728525 0.700905 6.000000 359.977710 -0.000389 10000.000000 20296.932423 2.000000 -0.188722 5.211278 -0.003195 10000.000000 20296.932423 0.492685 -0.001016 0.000589 3906.248291 14.211278 -0.531677 0.000806 0.050857 -0.022290 623.528931 0.029250 0.029243 0.021141 0.021143 0.000000 0.000000 0.000000 0.000000 0.000000 0.000000 0.000000 -1.000000 0.000000 0.000000 0.000000 0.000000 0.000000 0.000000 0.000000 0.000000 0.000000 0.000000 0.000000 0.000000 0.000000 . . . . . . . . . . . . . . . . . . . . . . . . . . . . . . . . . . . . . . . . . . . . . . . . . . . . . . . . 
1.065 1.85 1.699998 0.538819 -0.001413 0.728525 0.700905 6.000000 359.977132 -0.000399 10000.000000 19937.764363 2.000000 -0.188743 5.211257 -0.003196 10000.000000 19937.764363 0.501561 -0.001034 0.000648 3906.256592 14.211257 -0.531671 0.000795 0.051095 -0.022868 624.052307 0.029162 0.029179 0.021035 0.021033 0.000000 0.000000 0.000000 0.000000 0.000000 0.000000 0.000000 -1.000000 0.000000 0.000000 0.000000 0.000000 0.000000 0.000000 0.000000 0.000000 0.000000 0.000000 0.000000 0.000000 0.000000 . . . . . . . . . . . . . . . . . . . . . . . . . . . . . . . . . . . . . . . . . . . . . . . . . . . . . . . . 
1.082 1.86667 1.699998 0.534977 -0.001411 0.728525 0.700905 6.000000 359.976544 -0.000409 10000.000000 19593.233957 2.000000 -0.188764 5.211236 -0.003196 10000.000000 19593.233957 0.510380 -0.001052 0.000692 3906.265137 14.211236 -0.531665 0.000782 0.051229 -0.023456 624.577881 0.029548 0.029591 0.020949 0.020936 0.000000 0.000000 0.000000 0.000000 0.000000 0.000000 0.000000 -1.000000 0.000000 0.000000 0.000000 0.000000 0.000000 0.000000 0.000000 0.000000 0.000000 0.000000 0.000000 0.000000 0.000000 . . . . . . . . . . . . . . . . . . . . . . . . . . . . . . . . . . . . . . . . . . . . . . . . . . . . . . . . 
1.098 1.88333 1.733332 0.532473 -0.001420 0.728525 0.700905 6.000000 359.975946 -0.000420 10000.000000 19261.485332 2.000000 -0.188785 5.211215 -0.003197 10000.000000 19261.485332 0.519171 -0.001070 0.000726 3906.273682 14.211215 -0.531659 0.000769 0.051260 -0.024054 625.105408 0.029935 0.029976 0.020753 0.020727 0.000000 0.000000 0.000000 0.000000 0.000000 0.000000 0.000000 -1.000000 0.000000 0.000000 0.000000 0.000000 0.000000 0.000000 0.000000 0.000000 0.000000 0.000000 0.000000 0.000000 0.000000 . . . . . . . . . . . . . . . . . . . . . . . . . . . . . . . . . . . . . . . . . . . . . . . . . . . . . . . . 
1.115 1.9 1.733332 0.530622 -0.001422 0.728525 0.700905 6.000000 359.975337 -0.000430 10000.000000 18941.833840 2.000000 -0.188807 5.211193 -0.003197 10000.000000 18941.833840 0.527932 -0.001088 0.000749 3906.282471 14.211193 -0.531652 0.000756 0.051191 -0.024663 625.634766 0.030296 0.030335 0.020426 0.020384 0.000000 0.000000 0.000000 0.000000 0.000000 0.000000 0.000000 -1.000000 0.000000 0.000000 0.000000 0.000000 0.000000 0.000000 0.000000 0.000000 0.000000 0.000000 0.000000 0.000000 0.000000 . . . . . . . . . . . . . . . . . . . . . . . . . . . . . . . . . . . . . . . . . . . . . . . . . . . . . . . . 
1.133 1.91667 1.766665 0.529012 -0.001417 0.728525 0.700905 6.000000 359.974719 -0.000441 10000.000000 18633.659551 2.000000 -0.188829 5.211171 -0.003197 10000.000000 18633.659551 0.536663 -0.001106 0.000763 3906.291260 14.211171 -0.531645 0.000744 0.051027 -0.025281 626.165466 0.030633 0.030671 0.019933 0.019870 0.000000 0.000000 0.000000 0.000000 0.000000 0.000000 0.000000 -1.000000 0.000000 0.000000 0.000000 0.000000 0.000000 0.000000 0.000000 0.000000 0.000000 0.000000 0.000000 0.000000 0.000000 . . . . . . . . . . . . . . . . . . . . . . . . . . . . . . . . . . . . . . . . . . . . . . . . . . . . . . . . 
1.148 1.93333 1.766665 0.527503 -0.001417 0.728525 0.700905 6.000000 359.974090 -0.000452 10000.000000 18336.404480 2.000000 -0.188852 5.211148 -0.003198 10000.000000 18336.404480 0.545363 -0.001124 0.000769 3906.300293 14.211148 -0.531638 0.000734 0.050773 -0.025910 626.697083 0.030946 0.030982 0.019216 0.019124 0.000000 0.000000 0.000000 0.000000 0.000000 0.000000 0.000000 -1.000000 0.000000 0.000000 0.000000 0.000000 0.000000 0.000000 0.000000 0.000000 0.000000 0.000000 0.000000 0.000000 0.000000 . . . . . . . . . . . . . . . . . . . . . . . . . . . . . . . . . . . . . . . . . . . . . . . . . . . . . . . . 
1.165 1.95 1.799998 0.526074 -0.001422 0.728525 0.700905 6.000000 359.973452 -0.000463 10000.000000 18049.595135 2.000000 -0.188875 5.211125 -0.003198 10000.000000 18049.595135 0.554029 -0.001141 0.000767 3906.309570 14.211125 -0.531631 0.000725 0.050434 -0.026548 627.229187 0.031234 0.031268 0.018147 0.018005 0.000000 0.000000 0.000000 0.000000 0.000000 0.000000 0.000000 -1.000000 0.000000 0.000000 0.000000 0.000000 0.000000 0.000000 0.000000 0.000000 0.000000 0.000000 0.000000 0.000000 0.000000 . . . . . . . . . . . . . . . . . . . . . . . . . . . . . . . . . . . . . . . . . . . . . . . . . . . . . . . . 
1.182 1.96667 1.799998 0.524801 -0.001429 0.582037 0.700905 6.000000 359.972803 -0.000475 10000.000000 17773.039397 2.000000 -0.188898 5.211102 -0.003199 10000.000000 17773.039397 0.562650 -0.001159 0.000759 3906.318848 14.211102 -0.531624 0.000718 0.050018 -0.027197 627.605347 0.031493 0.031525 0.016275 0.016004 0.000000 0.000000 0.000000 0.000000 0.000000 0.000000 0.000000 -1.000000 0.000000 0.000000 0.000000 0.000000 0.000000 0.000000 0.000000 0.000000 0.000000 0.000000 0.000000 0.000000 0.000000 . . . . . . . . . . . . . . . . . . . . . . . . . . . . . . . . . . . . . . . . . . . . . . . . . . . . . . . . 
1.198 1.98333 1.833331 0.525819 -0.001433 0.582037 0.700905 6.000000 359.972143 -0.000486 10000.000000 17524.299677 2.000000 -0.188922 5.211078 -0.003199 10000.000000 17524.299677 0.570636 -0.001177 0.000812 3906.328369 14.211078 -0.531617 0.000712 0.049529 -0.027857 625.674683 0.031920 0.031958 0.008242 0.015806 0.000000 0.000000 0.000000 0.000000 0.000000 0.000000 0.000000 -1.000000 0.000000 0.000000 0.000000 0.000000 0.000000 0.000000 0.000000 0.000000 0.000000 0.000000 0.000000 0.000000 0.000000 . . . . . . . . . . . . . . . . . . . . . . . . . . . . . . . . . . . . . . . . . . . . . . . . . . . . . . . . 
1.215 2 1.833331 0.530052 -0.001457 0.582037 0.700905 6.000000 359.971475 -0.000498 10000.000000 17270.451458 2.000000 -0.188947 5.211053 -0.003200 10000.000000 17270.451458 0.579024 -0.001194 0.000795 3906.337891 14.211053 -0.531612 0.000709 0.048968 -0.028525 623.884521 0.031440 0.031471 0.019786 0.019776 0.000000 0.000000 0.000000 0.000000 0.000000 0.000000 0.000000 -1.000000 0.000000 0.000000 0.000000 0.000000 0.000000 0.000000 0.000000 0.000000 0.000000 0.000000 0.000000 0.000000 0.000000 . . . . . . . . . . . . . . . . . . . . . . . . . . . . . . . . . . . . . . . . . . . . . . . . . . . . . . . . 
1.233 2.01667 1.866665 0.521199 -0.001450 0.582037 0.700905 6.000000 359.970798 -0.000510 10000.000000 17021.940438 2.000000 -0.188972 5.211028 -0.003200 10000.000000 17021.940438 0.587477 -0.001211 0.000742 3906.347656 14.211028 -0.531607 0.000708 0.048315 -0.029202 622.305481 0.031576 0.031606 0.019712 0.019697 0.000000 0.000000 0.000000 0.000000 0.000000 0.000000 0.000000 -1.000000 0.000000 0.000000 0.000000 0.000000 0.000000 0.000000 0.000000 0.000000 0.000000 0.000000 0.000000 0.000000 0.000000 . . . . . . . . . . . . . . . . . . . . . . . . . . . . . . . . . . . . . . . . . . . . . . . . . . . . . . . . 
1.248 2.03333 1.866665 0.513345 -0.001440 0.582037 0.700905 6.000000 359.970110 -0.000522 10000.000000 16783.268046 2.000000 -0.188998 5.211002 -0.003200 10000.000000 16783.268046 0.595832 -0.001227 0.000685 3906.357422 14.211002 -0.531603 0.000710 0.047559 -0.029890 620.966736 0.031691 0.031720 0.019588 0.019568 0.000000 0.000000 0.000000 0.000000 0.000000 0.000000 0.000000 -1.000000 0.000000 0.000000 0.000000 0.000000 0.000000 0.000000 0.000000 0.000000 0.000000 0.000000 0.000000 0.000000 0.000000 . . . . . . . . . . . . . . . . . . . . . . . . . . . . . . . . . . . . . . . . . . . . . . . . . . . . . . . . 
1.265 2.05 1.899998 0.506605 -0.001442 0.582037 0.700905 6.000000 359.969412 -0.000534 10000.000000 16553.874437 2.000000 -0.189023 5.210977 -0.003201 10000.000000 16553.874437 0.604089 -0.001244 0.000628 3906.367432 14.210977 -0.531600 0.000713 0.046695 -0.030588 619.870422 0.031795 0.031822 0.019412 0.019386 0.000000 0.000000 0.000000 0.000000 0.000000 0.000000 0.000000 -1.000000 0.000000 0.000000 0.000000 0.000000 0.000000 0.000000 0.000000 0.000000 0.000000 0.000000 0.000000 0.000000 0.000000 . . . . . . . . . . . . . . . . . . . . . . . . . . . . . . . . . . . . . . . . . . . . . . . . . . . . . . . . 
1.282 2.06667 1.899998 0.500466 -0.001444 0.582037 0.700905 6.000000 359.968704 -0.000546 10000.000000 16333.135999 2.000000 -0.189050 5.210950 -0.003201 10000.000000 16333.135999 0.612253 -0.001261 0.000575 3906.377686 14.210950 -0.531598 0.000717 0.045723 -0.031296 619.003357 0.031892 0.031917 0.019184 0.019153 0.000000 0.000000 0.000000 0.000000 0.000000 0.000000 0.000000 -1.000000 0.000000 0.000000 0.000000 0.000000 0.000000 0.000000 0.000000 0.000000 0.000000 0.000000 0.000000 0.000000 0.000000 . . . . . . . . . . . . . . . . . . . . . . . . . . . . . . . . . . . . . . . . . . . . . . . . . . . . . . . . 
1.299 2.08333 1.933331 0.494779 -0.001442 0.582037 0.700905 6.000000 359.967988 -0.000559 10000.000000 16120.429405 2.000000 -0.189077 5.210923 -0.003201 10000.000000 16120.429405 0.620331 -0.001277 0.000528 3906.387939 14.210923 -0.531597 0.000723 0.044652 -0.032012 618.344421 0.031982 0.032005 0.018904 0.018867 0.000000 0.000000 0.000000 0.000000 0.000000 0.000000 0.000000 -1.000000 0.000000 0.000000 0.000000 0.000000 0.000000 0.000000 0.000000 0.000000 0.000000 0.000000 0.000000 0.000000 0.000000 . . . . . . . . . . . . . . . . . . . . . . . . . . . . . . . . . . . . . . . . . . . . . . . . . . . . . . . . 
1.316 2.1 1.933331 0.489546 -0.001443 0.582037 0.700905 6.000000 359.967262 -0.000571 10000.000000 15915.152658 2.000000 -0.189104 5.210896 -0.003202 10000.000000 15915.152658 0.628333 -0.001293 0.000487 3906.398438 14.210896 -0.531596 0.000729 0.043490 -0.032738 617.869324 0.032066 0.032087 0.018573 0.018531 0.000000 0.000000 0.000000 0.000000 0.000000 0.000000 0.000000 -1.000000 0.000000 0.000000 0.000000 0.000000 0.000000 0.000000 0.000000 0.000000 0.000000 0.000000 0.000000 0.000000 0.000000 . . . . . . . . . . . . . . . . . . . . . . . . . . . . . . . . . . . . . . . . . . . . . . . . . . . . . . . . 
1.332 2.11667 1.966665 0.484785 -0.001450 0.582037 0.700905 6.000000 359.966528 -0.000584 10000.000000 15716.753223 2.000000 -0.189132 5.210868 -0.003202 10000.000000 15716.753223 0.636264 -0.001309 0.000452 3906.408936 14.210868 -0.531596 0.000736 0.042251 -0.033472 617.553284 0.032141 0.032160 0.018192 0.018144 0.000000 0.000000 0.000000 0.000000 0.000000 0.000000 0.000000 -1.000000 0.000000 0.000000 0.000000 0.000000 0.000000 0.000000 0.000000 0.000000 0.000000 0.000000 0.000000 0.000000 0.000000 . . . . . . . . . . . . . . . . . . . . . . . . . . . . . . . . . . . . . . . . . . . . . . . . . . . . . . . . 
1.348 2.13333 1.966665 0.480486 -0.001457 0.582037 0.700905 6.000000 359.965784 -0.000597 10000.000000 15524.731865 2.000000 -0.189160 5.210840 -0.003203 10000.000000 15524.731865 0.644134 -0.001325 0.000424 3906.419678 14.210840 -0.531596 0.000743 0.040948 -0.034216 617.372864 0.032207 0.032223 0.017763 0.017710 0.000000 0.000000 0.000000 0.000000 0.000000 0.000000 0.000000 -1.000000 0.000000 0.000000 0.000000 0.000000 0.000000 0.000000 0.000000 0.000000 0.000000 0.000000 0.000000 0.000000 0.000000 . . . . . . . . . . . . . . . . . . . . . . . . . . . . . . . . . . . . . . . . . . . . . . . . . . . . . . . . 
1.365 2.15 1.999998 0.476622 -0.001463 0.582037 0.700905 6.000000 359.965031 -0.000610 10000.000000 15338.644420 2.000000 -0.189189 5.210811 -0.003203 10000.000000 15338.644420 0.651949 -0.001341 0.000400 3906.430420 14.210811 -0.531597 0.000750 0.039596 -0.034969 617.306702 0.032260 0.032273 0.017287 0.017229 0.000000 0.000000 0.000000 0.000000 0.000000 0.000000 0.000000 -1.000000 0.000000 0.000000 0.000000 0.000000 0.000000 0.000000 0.000000 0.000000 0.000000 0.000000 0.000000 0.000000 0.000000 . . . . . . . . . . . . . . . . . . . . . . . . . . . . . . . . . . . . . . . . . . . . . . . . . . . . . . . . 
1.382 2.16667 1.999998 0.473149 -0.001470 0.435549 0.000000 6.000000 359.964269 -0.000624 10000.000000 15158.096358 2.000000 -0.189218 5.210782 -0.003203 10000.000000 15158.096358 0.659714 -0.001356 0.000379 3906.441406 14.210782 -0.531597 0.000757 0.038212 -0.035731 617.179932 0.032298 0.032308 0.016767 0.016704 0.000000 0.000000 0.000000 0.000000 0.000000 0.000000 0.000000 -1.000000 0.000000 0.000000 0.000000 0.000000 0.000000 0.000000 0.000000 0.000000 0.000000 0.000000 0.000000 0.000000 0.000000 . . . . . . . . . . . . . . . . . . . . . . . . . . . . . . . . . . . . . . . . . . . . . . . . . . . . . . . . 
1.398 2.18333 2.033331 0.469752 -0.001477 0.435549 0.000000 6.000000 359.963498 -0.000637 10000.000000 14983.017620 2.000000 -0.189248 5.210752 -0.003204 10000.000000 14983.017620 0.667423 -0.001372 0.000361 3906.452637 14.210752 -0.531598 0.000763 0.036807 -0.036502 614.824829 0.032280 0.032287 0.016207 0.016139 0.000000 0.000000 0.000000 0.000000 0.000000 0.000000 0.000000 -1.000000 0.000000 0.000000 0.000000 0.000000 0.000000 0.000000 0.000000 0.000000 0.000000 0.000000 0.000000 0.000000 0.000000 . . . . . . . . . . . . . . . . . . . . . . . . . . . . . . . . . . . . . . . . . . . . . . . . . . . . . . . . 
1.416 2.2 2.033331 0.465433 -0.001481 0.435549 0.000000 6.000000 359.962719 -0.000651 10000.000000 14813.817776 2.000000 -0.189278 5.210722 -0.003204 10000.000000 14813.817776 0.675046 -0.001388 0.000341 3906.463623 14.210722 -0.531599 0.000770 0.035388 -0.037281 612.673706 0.032208 0.032213 0.015611 0.015539 0.000000 0.000000 0.000000 0.000000 0.000000 0.000000 0.000000 -1.000000 0.000000 0.000000 0.000000 0.000000 0.000000 0.000000 0.000000 0.000000 0.000000 0.000000 0.000000 0.000000 0.000000 . . . . . . . . . . . . . . . . . . . . . . . . . . . . . . . . . . . . . . . . . . . . . . . . . . . . . . . . 
1.433 2.21667 2.066665 0.459997 -0.001482 0.435549 0.000000 6.000000 359.961931 -0.000664 10000.000000 14650.570022 2.000000 -0.189309 5.210691 -0.003204 10000.000000 14650.570022 0.682568 -0.001403 0.000318 3906.475098 14.210691 -0.531600 0.000775 0.033950 -0.038069 610.784058 0.032105 0.032106 0.014986 0.014911 0.000000 0.000000 0.000000 0.000000 0.000000 0.000000 0.000000 -1.000000 0.000000 0.000000 0.000000 0.000000 0.000000 0.000000 0.000000 0.000000 0.000000 0.000000 0.000000 0.000000 0.000000 . . . . . . . . . . . . . . . . . . . . . . . . . . . . . . . . . . . . . . . . . . . . . . . . . . . . . . . . 
1.448 2.23333 2.066665 0.454665 -0.001483 0.435549 0.000000 6.000000 359.961234 -0.000677 10000.000000 14512.467136 2.000000 -0.189336 5.210664 -0.003205 10000.000000 14512.467136 0.689064 -0.001416 0.000296 3906.485107 14.210664 -0.531601 0.000779 0.032673 -0.038766 609.359558 0.031996 0.031994 0.014420 0.014342 0.000000 0.000000 0.000000 0.000000 0.000000 0.000000 0.000000 -1.000000 0.000000 0.000000 0.000000 0.000000 0.000000 0.000000 0.000000 0.000000 0.000000 0.000000 0.000000 0.000000 0.000000 . . . . . . . . . . . . . . . . . . . . . . . . . . . . . . . . . . . . . . . . . . . . . . . . . . . . . . . . 
1.466 2.25 2.099998 0.447576 -0.001483 0.435549 0.000000 6.000000 359.960329 -0.000692 10000.000000 14341.053856 2.000000 -0.189372 5.210628 -0.003205 10000.000000 14341.053856 0.697300 -0.001433 0.000265 3906.498047 14.210628 -0.531602 0.000783 0.030999 -0.039671 607.835754 0.031839 0.031833 0.013673 0.013593 0.000000 0.000000 0.000000 0.000000 0.000000 0.000000 0.000000 -1.000000 0.000000 0.000000 0.000000 0.000000 0.000000 0.000000 0.000000 0.000000 0.000000 0.000000 0.000000 0.000000 0.000000 . . . . . . . . . . . . . . . . . . . . . . . . . . . . . . . . . . . . . . . . . . . . . . . . . . . . . . . . 
1.482 2.26667 2.099998 0.441437 -0.001484 0.435549 0.000000 6.000000 359.959516 -0.000707 10000.000000 14194.101093 2.000000 -0.189404 5.210596 -0.003205 10000.000000 14194.101093 0.704519 -0.001448 0.000235 3906.509766 14.210596 -0.531604 0.000786 0.029478 -0.040484 606.751587 0.031686 0.031676 0.012998 0.012917 0.000000 0.000000 0.000000 0.000000 0.000000 0.000000 0.000000 -1.000000 0.000000 0.000000 0.000000 0.000000 0.000000 0.000000 0.000000 0.000000 0.000000 0.000000 0.000000 0.000000 0.000000 . . . . . . . . . . . . . . . . . . . . . . . . . . . . . . . . . . . . . . . . . . . . . . . . . . . . . . . . 
1.498 2.28333 2.133331 0.435675 -0.001485 0.435549 0.000000 6.000000 359.958694 -0.000721 10000.000000 14051.853410 2.000000 -0.189437 5.210563 -0.003205 10000.000000 14051.853410 0.711651 -0.001462 0.000205 3906.521729 14.210563 -0.531605 0.000788 0.027927 -0.041306 605.895325 0.031520 0.031506 0.012321 0.012240 0.000000 0.000000 0.000000 0.000000 0.000000 0.000000 0.000000 -1.000000 0.000000 0.000000 0.000000 0.000000 0.000000 0.000000 0.000000 0.000000 0.000000 0.000000 0.000000 0.000000 0.000000 . . . . . . . . . . . . . . . . . . . . . . . . . . . . . . . . . . . . . . . . . . . . . . . . . . . . . . . . 
1.515 2.3 2.133331 0.430393 -0.001487 0.435549 0.000000 6.000000 359.957864 -0.000735 10000.000000 13913.949257 2.000000 -0.189471 5.210529 -0.003206 10000.000000 13913.949257 0.718704 -0.001477 0.000175 3906.533691 14.210529 -0.531607 0.000789 0.026350 -0.042136 605.239319 0.031340 0.031323 0.011648 0.011569 0.000000 0.000000 0.000000 0.000000 0.000000 0.000000 0.000000 -1.000000 0.000000 0.000000 0.000000 0.000000 0.000000 0.000000 0.000000 0.000000 0.000000 0.000000 0.000000 0.000000 0.000000 . . . . . . . . . . . . . . . . . . . . . . . . . . . . . . . . . . . . . . . . . . . . . . . . . . . . . . . . 
1.533 2.31667 2.166664 0.425619 -0.001489 0.435549 0.000000 6.000000 359.957026 -0.000750 10000.000000 13780.058737 2.000000 -0.189504 5.210496 -0.003206 10000.000000 13780.058737 0.725688 -0.001491 0.000145 3906.545654 14.210496 -0.531609 0.000789 0.024753 -0.042973 604.756409 0.031146 0.031125 0.010987 0.010909 0.000000 0.000000 0.000000 0.000000 0.000000 0.000000 0.000000 -1.000000 0.000000 0.000000 0.000000 0.000000 0.000000 0.000000 0.000000 0.000000 0.000000 0.000000 0.000000 0.000000 0.000000 . . . . . . . . . . . . . . . . . . . . . . . . . . . . . . . . . . . . . . . . . . . . . . . . . . . . . . . . 
1.549 2.33333 2.166664 0.421343 -0.001492 0.435549 0.000000 6.000000 359.956181 -0.000765 10000.000000 13649.883094 2.000000 -0.189538 5.210462 -0.003206 10000.000000 13649.883094 0.732608 -0.001505 0.000116 3906.557861 14.210462 -0.531612 0.000789 0.023145 -0.043819 604.421082 0.030936 0.030909 0.010344 0.010268 0.000000 0.000000 0.000000 0.000000 0.000000 0.000000 0.000000 -1.000000 0.000000 0.000000 0.000000 0.000000 0.000000 0.000000 0.000000 0.000000 0.000000 0.000000 0.000000 0.000000 0.000000 . . . . . . . . . . . . . . . . . . . . . . . . . . . . . . . . . . . . . . . . . . . . . . . . . . . . . . . . 
1.565 2.35 2.199998 0.417527 -0.001496 0.435549 0.000000 6.000000 359.955327 -0.000780 10000.000000 13523.158625 2.000000 -0.189573 5.210427 -0.003207 10000.000000 13523.158625 0.739474 -0.001519 0.000087 3906.570068 14.210427 -0.531614 0.000789 0.021535 -0.044673 604.210510 0.030707 0.030676 0.009722 0.009650 0.000000 0.000000 0.000000 0.000000 0.000000 0.000000 0.000000 -1.000000 0.000000 0.000000 0.000000 0.000000 0.000000 0.000000 0.000000 0.000000 0.000000 0.000000 0.000000 0.000000 0.000000 . . . . . . . . . . . . . . . . . . . . . . . . . . . . . . . . . . . . . . . . . . . . . . . . . . . . . . . . 
